     2.11           OBSERVATION DATA    G (GPS)             RINEX VERSION / TYPE
teqc  2016Nov7      root                20180417 16:17:49UTCPGM / RUN BY / DATE
Linux 2.4.21-27.ELsmp|Opteron|gcc|Linux x86_64|=+           COMMENT
     2.11           OBSERVATION DATA    G (GPS)             COMMENT
teqc  2015Nov6      NOAA/NOS/NGS/CORS   20160214 02:40:11UTCCOMMENT
Solaris x86 5.10|AMD64|cc SC5.8 -xarch=amd64|=+|=+          COMMENT
teqc  2015Nov6      NOAA/NOS/NGS/CORS   20160214 02:36:27UTCCOMMENT
Spider V5.3.0.6216                      2016 02 13 01:16    COMMENT
BIT 2 OF LLI FLAGS DATA COLLECTED UNDER A/S CONDITION       COMMENT
SNR is mapped to RINEX snr flag value [1-9]                 COMMENT
LX:    >= 25dBHz -> 1; 26-27dBHz -> 2; 28-31dBHz -> 3       COMMENT
       32-35dBHz -> 4; 36-38dBHz -> 5; 39-41dBHz -> 6       COMMENT
       42-44dBHz -> 7; 45-48dBHz -> 8; >= 49dBHz -> 9       COMMENT
Site Information :                                          COMMENT
Bullhead City                                               COMMENT
Arizona                                                     COMMENT
teqc edited: all SBAS satellites excluded                   COMMENT
teqc edited: all Compass satellites excluded                COMMENT
teqc edited: all QZSS satellites excluded                   COMMENT
Forced Modulo Decimation to 30 seconds                      COMMENT
AZBH                                                        MARKER NAME
AZBH                                                        MARKER NUMBER
John Marshall       ASLDSC                                  OBSERVER / AGENCY
355164              LEICA GRX1200GGPRO  7.80/3.055          REC # / TYPE / VERS
07230045            LEIAX1202GG     NONE                    ANT # / TYPE
 -2174939.2040 -4749390.0760  3647716.6390                  APPROX POSITION XYZ
        0.0000        0.0000        0.0000                  ANTENNA: DELTA H/E/N
     1     1                                                WAVELENGTH FACT L1/2
     8    L1    L2    C1    C2    P1    P2    S1    S2      # / TYPES OF OBSERV
    30.0000                                                 INTERVAL
teqc.w windowed: start @ 2016 Feb 13 00:00:00.000           COMMENT
teqc.w windowed:  end  @ 2016 Feb 13 05:00:00.000           COMMENT
teqc.w edited: all GLONASS satellites excluded              COMMENT
  2016     2    13     1    52   30.0000000     GPS         TIME OF FIRST OBS
                                                            END OF HEADER
 16  2 13  1 52 30.0000000  0 12G01G05G07G08G09G11G13G17G23G27G28G30
 131981366.126 6 102842640.97044  25115217.220
  25115221.600          41.750          34.250
 129313643.045 6 100763895.69444  24607562.820
  24607565.180          41.750          34.500
 107837136.959 9  84029013.40348  20520687.200
  20520686.640          49.500          45.250
 117748400.943 8  91752078.80246  22406745.640
  22406747.860          47.500          40.750
 116447213.812 8  90738134.79947  22159141.120
  22159143.180          47.500          42.000
 122768209.920 7  95663562.61444  23362003.620
  23362003.360          44.250          35.500
 126695411.347 7  98723721.56544  24109330.820
  24109332.000          42.500          34.500
 126908611.255 7  98889825.87947  24149897.340
  24149900.120          43.000          42.750
 130410003.662 6 101618205.40843  24816190.220
  24816190.040          41.750          30.000
 130258766.579 6 101500401.85844  24787392.020
  24787393.920          40.500          35.000
 112518306.424 9  87676628.05446  21411503.820
  21411503.040          49.500          41.750
 109043460.178 9  84969009.90648  20750251.200
  20750253.280          50.250          46.250
 16  2 13  1 53  0.0000000  0 12G01G05G07G08G09G11G13G17G23G27G28G30
 131906047.076 6 102783950.85944  25100885.100
  25100888.060          40.250          33.250
 129350881.708 7 100792912.83044  24614649.460
  24614651.720          42.250          35.250
 107844553.777 9  84034792.74648  20522098.520
  20522098.160          49.500          45.500
 117810384.015 8  91800377.31346  22418540.480
  22418543.100          47.000          40.750
 116542500.391 8  90812384.06047  22177273.340
  22177275.520          47.250          42.000
 122705378.498 7  95614603.12244  23350047.100
  23350046.680          44.250          34.750
 126592964.888 6  98643893.25844  24089835.840
  24089837.540          41.750          35.250
 126801357.285 8  98806251.43744  24129488.280
  24129490.140          46.000          35.250
 130526136.104 6 101708698.27844  24838289.460
  24838289.040          41.500          33.500
 130357759.629 6 101577539.32444  24806229.680
  24806231.540          40.000          33.500
 112485854.192 9  87651340.62546  21405328.280
  21405327.340          49.500          41.500
 109009204.066 9  84942316.85348  20743732.460
  20743734.720          50.500          45.750
 16  2 13  1 53 30.0000000  0 12G01G05G07G08G09G11G13G17G23G27G28G30
 131830725.153 6 102725258.55444  25086551.800
  25086554.860          40.500          35.500
 129388489.929 7 100822217.94445  24621806.580
  24621808.340          43.750          36.750
 107852257.359 9  84040795.55448  20523564.620
  20523564.060          49.750          45.500
 117872831.630 8  91849037.81946  22430423.740
  22430426.260          46.750          41.250
 116638084.247 8  90886864.96147  22195462.200
  22195464.520          47.250          42.000
 122642865.245 7  95565891.57044  23338151.140
  23338150.680          44.250          34.250
 126490719.132 6  98564221.38144  24070378.780
  24070380.520          40.000          35.750
 126694180.870 8  98722737.52046  24109093.020
  24109095.020          46.500          39.000
 130642306.917 6 101799220.98443  24860396.000
  24860396.180          40.000          31.500
 130456984.079 5 101654857.14944  24825111.200
  24825112.500          36.500          35.500
 112453707.382 9  87626291.19647  21399210.780
  21399209.900          49.000          42.000
 108975163.031 9  84915791.39448  20737254.620
  20737256.880          50.000          46.000
 16  2 13  1 54  0.0000000  0 12G01G05G07G08G09G11G13G17G23G27G28G30
 131755405.089 6 102666567.62845  25072218.680
  25072222.380          40.750          37.000
 129426467.235 7 100851810.67045  24629033.740
  24629035.100          44.000          36.500
 107860250.289 9  84047023.83148  20525085.780
  20525085.080          49.750          45.500
 117935743.330 8  91898059.94346  22442395.560
  22442397.780          47.000          41.000
 116733964.463 8  90961576.80547  22213707.600
  22213710.080          47.250          42.000
 122580674.570 7  95517431.35345  23326316.380
  23326316.180          44.000          37.250
 126388678.030 6  98484708.94545  24050960.520
  24050962.580          41.250          36.250
 126587086.508 7  98639287.45545  24088713.500
  24088715.100          42.000          36.250
 130758515.376 6 101889773.05944  24882509.520
  24882509.860          41.000          34.750
 130556438.794 5 101732354.33444  24844036.320
  24844038.420          38.500          33.750
 112421866.436 9  87601480.10046  21393151.500
  21393150.640          49.000          41.750
 108941339.807 9  84889435.65448  20730818.240
  20730820.340          50.250          45.750
 16  2 13  1 54 30.0000000  0 12G01G05G07G08G09G11G13G17G23G27G28G30
 131680086.051 6 102607877.50744  25057885.720
  25057890.160          39.000          35.750
 129464807.490 7 100881686.15944  24636329.460
  24636330.600          42.250          35.000
 107868530.065 9  84053475.61348  20526661.360
  20526660.760          49.500          46.000
 117999113.206 8  91947439.08246  22454454.580
  22454456.800          47.000          41.250
 116830134.936 8  91036514.81547  22232008.380
  22232010.760          47.000          42.500
 122518805.879 7  95469222.02645  23314543.000
  23314542.860          44.000          36.500
 126286840.950 7  98405355.46044  24031581.420
  24031582.780          42.500          33.000
 126480072.719 8  98555900.23645  24068349.660
  24068351.400          46.750          38.750
 130874755.318 6 101980349.67244  24904628.880
  24904629.580          40.500          33.750
 130656117.342 6 101810025.94645  24863004.760
  24863007.400          41.750          38.250
 112390327.384 9  87576904.24647  21387149.780
  21387148.960          49.250          42.750
 108907731.864 9  84863247.67048  20724422.880
  20724424.720          50.500          45.750
 16  2 13  1 55  0.0000000  0 12G01G05G07G08G09G11G13G17G23G27G28G30
 131604771.266 6 102549190.77244  25043553.700
  25043558.140          40.500          35.000
 129503508.601 7 100911842.87945  24643693.580
  24643695.940          42.250          36.250
 107877098.043 9  84060151.95748  20528291.660
  20528291.160          49.750          45.500
 118062939.296 8  91997173.70746  22466600.180
  22466602.600          47.000          40.000
 116926593.416 8  91111677.26447  22250363.980
  22250366.100          46.750          42.000
 122457262.526 7  95421266.24345  23302831.820
  23302831.320          43.500          36.500
 126185210.900 7  98326163.24443  24012242.160
  24012242.200          44.000          30.000
 126373142.945 8  98472578.45344  24048001.100
  24048002.640          45.000          33.750
 130991024.583 6 102070949.06744  24926753.820
  24926754.620          40.250          32.750
 130756017.263 6 101887870.08045  24882015.680
  24882017.560          41.250          36.250
 112359089.704 9  87552563.22747  21381205.600
  21381204.660          49.500          42.000
 108874340.583 9  84837228.51148  20718068.700
  20718070.360          50.500          45.500
 16  2 13  1 55 30.0000000  0 12G01G05G07G08G09G11G13G17G23G27G28G30
 131529464.637 6 102490510.30344  25029223.240
  25029227.900          39.750          34.750
 129542569.585 7 100942280.00945  24651126.540
  24651129.280          42.250          36.500
 107885956.039 9  84067054.30248  20529977.320
  20529976.540          50.000          45.500
 118127220.261 8  92047262.79846  22478832.420
  22478834.940          47.250          41.500
 117023338.204 8  91187062.80447  22268773.920
  22268775.960          46.500          42.500
 122396048.158 7  95373566.77445  23291183.020
  23291182.320          42.750          37.750
 126083791.527 7  98247135.20444  23992943.140
  23992942.240          42.750          33.750
 126266301.147 5  98389325.28746  24027669.800
  24027672.060          38.500          39.250
 131107321.618 6 102161570.15245  24948884.280
  24948885.160          40.250          37.000
 130856136.780 6 101965885.31044  24901067.680
  24901069.220          39.500          34.750
 112328153.757 9  87528457.33347  21375318.780
  21375317.760          49.500          42.250
 108841168.003 9  84811379.76648  20711756.160
  20711757.700          50.500          45.250
 16  2 13  1 56  0.0000000  0 12G01G05G07G08G09G11G13G17G23G27G28G30
 131454171.737 6 102431840.52744  25014895.300
  25014899.720          41.000          35.000
 129581989.955 7 100972997.19945  24658627.960
  24658631.040          43.250          38.000
 107895107.336 9  84074185.20948  20531718.920
  20531717.760          49.750          45.250
 118191956.778 8  92097706.84146  22491151.220
  22491154.200          47.000          41.000
 117120369.407 8  91262671.50546  22287238.280
  22287240.460          46.750          41.750
 122335167.973 7  95326127.74945  23279597.340
  23279597.320          42.500          37.250
 125982587.912 6  98168275.27744  23973684.440
  23973683.740          41.500          32.750
 126159550.882 7  98306143.28945  24007355.800
  24007356.860          42.750          36.500
 131223646.306 6 102252212.77944  24971020.260
  24971020.840          40.500          35.250
 130956475.799 4 102044071.59545  24920160.580
  24920162.980          35.750          37.000
 112297521.025 9  87504587.70747  21369489.620
  21369488.660          49.500          42.250
 108808217.798 9  84785704.31248  20705486.000
  20705487.520          50.500          45.500
 16  2 13  1 56 30.0000000  0 12G01G05G07G08G09G11G13G17G23G27G28G30
 131378893.701 6 102373182.39444  25000570.180
  25000574.920          40.250          32.750
 129621765.920 7 101003991.44145  24666197.220
  24666200.720          42.500          36.750
 107904551.250 9  84081544.12448  20533516.080
  20533515.000          49.750          45.500
 118257144.387 8  92148502.38046  22503555.900
  22503559.000          47.000          40.750
 117217682.666 8  91338499.99647  22305756.340
  22305758.760          46.750          43.250
 122274623.191 7  95278950.06245  23268075.700
  23268075.940          43.500          36.500
 125881601.094 6  98089584.35544  23954466.480
  23954466.980          40.250          35.250
 126052893.350 7  98223033.82745  23987058.960
  23987061.040          44.500          36.500
 131339994.483 6 102342873.74645  24993160.520
  24993161.300          40.250          37.000
 131057029.591 5 102122425.17146  24939295.020
  24939297.700          36.500          39.000
 112267188.766 9  87480952.21547  21363717.680
  21363716.720          49.500          42.500
 108775489.319 9  84760201.63848  20699258.020
  20699259.540          50.500          45.750
 16  2 13  1 57  0.0000000  0 11G01G05G07G08G09G11G13G17G27G28G30
 131303633.027 6 102314537.76145  24986248.340
  24986253.020          39.750          36.250
 129661894.585 7 101035260.53645  24673833.600
  24673837.220          43.500          37.000
 107914288.458 9  84089131.56448  20535368.980
  20535368.080          49.750          45.500
 118322780.321 8  92199647.30146  22516046.040
  22516048.660          47.000          40.000
 117315274.871 8  91414545.85847  22324327.620
  22324330.140          47.000          42.000
 122214416.063 7  95232035.49145  23256618.700
  23256619.040          43.250          36.250
 125780833.046 7  98011063.94744  23935290.520
  23935292.200          42.500          35.250
 125946330.824 7  98139998.20246  23966780.620
  23966782.800          43.500          40.000
 131157795.023 5 102200943.68946  24958469.540
  24958472.800          38.500          39.750
 112237155.671 9  87457549.84047  21358002.640
  21358001.620          49.750          42.500
 108742983.154 9  84734872.17848  20693072.400
  20693073.760          50.500          45.750
 16  2 13  1 57 30.0000000  0 11G01G05G07G08G09G11G13G17G27G28G30
 131228389.104 6 102255906.15943  24971929.960
  24971934.600          40.500          31.500
 129702370.053 7 101066799.82546  24681536.120
  24681539.880          42.750          40.000
 107924316.095 9  84096945.32448  20537277.160
  20537276.300          50.000          45.500
 118388859.105 8  92251137.27946  22528620.480
  22528622.720          46.750          41.000
 117413139.943 8  91490804.33346  22342950.840
  22342953.320          47.250          41.750
 122154545.830 7  95185383.42044  23245225.900
  23245226.220          43.000          35.750
 125680283.489 7  97932713.67245  23916157.000
  23916158.680          44.000          36.000
 125839862.481 7  98057035.99745  23946520.700
  23946522.960          44.250          38.000
 131258765.752 6 102279622.19646  24977683.320
  24977687.080          39.000          39.750
 112207417.583 9  87434377.33047  21352343.860
  21352342.760          49.750          42.250
 108710696.908 9  84709714.08448  20686928.600
  20686929.960          50.750          45.750
 16  2 13  1 58  0.0000000  0 11G01G05G07G08G09G11G13G17G27G28G30
 131153169.304 6 102197293.37543  24957616.020
  24957620.540          39.500          29.750
 129743194.306 7 101098610.92945  24689304.480
  24689308.460          43.500          38.250
 107934639.263 9  84104989.37048  20539241.600
  20539240.800          50.000          45.750
 118455382.859 8  92302973.98946  22541279.720
  22541281.480          47.250          41.000
 117511279.748 8  91567276.90247  22361626.360
  22361628.740          47.000          42.500
 122095020.309 7  95138999.96944  23233898.540
  23233898.920          43.250          35.750
 125579959.439 8  97854539.17945  23897066.440
  23897067.840          45.000          36.000
 125733495.117 8  97974152.44046  23926279.660
  23926281.380          46.000          39.000
 131359943.509 6 102358461.98044  24996936.840
  24996940.600          40.250          33.000
 112177978.091 9  87411437.49547  21346741.780
  21346740.680          49.500          42.500
 108678636.073 9  84684731.64048  20680827.660
  20680829.040          50.750          45.500
 16  2 13  1 58 30.0000000  0 11G01G05G07G08G09G11G13G17G27G28G30
 131077973.814 6 102138699.54644  24943306.460
  24943311.540          39.000          35.250
 129784362.143 7 101130689.73145  24697138.620
  24697142.340          42.500          38.250
 107945256.250 9  84113262.35748  20541261.880
  20541261.300          49.750          45.500
 118522345.987 8  92355153.06446  22554022.580
  22554023.960          47.250          40.500
 117609688.937 8  91643959.37546  22380353.040
  22380355.480          47.000          41.500
 122035839.216 7  95092884.90845  23222636.600
  23222637.180          43.750          36.750
 125479860.488 7  97776540.05244  23878018.480
  23878019.440          43.250          33.750
 125627228.076 8  97891347.08545  23906057.640
  23906059.200          46.250          37.250
 131461322.700 6 102437458.84044  25016229.040
  25016232.240          40.250          33.750
 112148833.633 9  87388727.56547  21341195.820
  21341194.800          50.000          42.500
 108646799.053 9  84659923.60348  20674769.240
  20674770.480          50.750          45.750
 16  2 13  1 59  0.0000000  0 11G01G05G07G08G09G11G13G17G27G28G30
 131002809.883 6 102080130.29043  24929003.160
  24929008.360          40.250          31.750
 129825875.481 6 101163037.80546  24705038.180
  24705041.740          41.750          39.250
 107956172.543 9  84121768.56548  20543339.020
  20543338.620          49.750          45.000
 118589750.619 8  92407676.16246  22566849.180
  22566850.780          46.250          40.750
 117708368.989 8  91720852.90546  22399131.140
  22399133.620          46.500          41.250
 121977009.378 7  95047043.54145  23211441.940
  23211442.260          44.500          36.250
 125379993.568 7  97698721.76543  23859013.900
  23859015.060          42.250          31.750
 125521068.382 8  97808625.37546  23885856.280
  23885857.580          45.250          39.000
 131562904.722 6 102516613.81043  25035559.640
  25035562.660          40.250          31.500
 112119987.550 9  87366250.13547  21335706.640
  21335705.420          49.750          42.250
 108615191.042 9  84635294.01248  20668754.320
  20668755.620          50.500          45.750
 16  2 13  1 59 30.0000000  0 11G01G05G07G08G09G11G13G17G27G28G30
 130927677.705 6 102021585.81044  24914706.040
  24914711.160          40.000          35.750
 129867729.269 6 101195651.09946  24713002.800
  24713005.900          41.250          39.000
 107967386.077 9  84130506.38648  20545472.800
  20545472.280          49.750          45.250
 118657591.632 8  92460539.30746  22579758.740
  22579760.740          46.250          40.250
 117807314.762 8  91797953.48546  22417959.660
  22417962.240          46.000          41.250
 121918530.965 7  95001476.00845  23200314.040
  23200313.940          44.750          37.000
 125280359.183 6  97621084.62944  23840053.560
  23840055.140          40.500          32.500
 125415015.981 7  97725987.22845  23865674.940
  23865675.880          43.500          37.500
 131664684.243 6 102595922.57945  25054927.840
  25054930.840          40.500          37.000
 112091436.312 9  87344002.45547  21330273.540
  21330272.220          50.000          42.500
 108583810.631 9  84610841.76348  20662782.660
  20662784.120          50.500          45.750
                            4  1
RINEX FILE SPLICE; other post-header comments skipped       COMMENT
 16  2 13  2  0  0.0000000  0 11G01G05G07G08G09G11G13G17G27G28G30
 130852582.994 6 101963070.47444  24900416.100
  24900421.200          39.750          32.500
 129909923.336 5 101228529.55646  24721031.060
  24721035.120          38.250          40.500
 107978900.348 9  84139478.55648  20547663.840
  20547663.200          49.750          45.000
 118725869.706 8  92513743.01146  22592751.380
  22592753.940          46.250          40.500
 117906526.187 8  91875261.07147  22436838.840
  22436841.640          46.500          42.000
 121860409.590 7  94956186.69445  23189253.940
  23189254.000          44.000          38.750
 125180962.426 7  97543632.68843  23821138.340
  23821140.040          42.750          30.250
 125309076.123 7  97643436.82144  23845515.060
  23845516.000          43.750          34.750
 131766661.194 5 102675385.07945  25074333.300
  25074336.620          36.500          38.250
 112063181.731 9  87321985.93647  21324896.840
  21324895.480          49.750          42.500
 108552661.495 9  84586569.73848  20656855.180
  20656856.720          50.750          46.000
 16  2 13  2  0 30.0000000  0 11G01G05G07G08G09G11G13G17G27G28G30
 130777525.989 6 101904584.60644  24886133.300
  24886137.840          40.500          34.500
 129952452.582 5 101261669.17545  24729123.220
  24729127.820          36.000          37.500
 107990713.537 9  84148683.65048  20549911.800
  20549911.040          49.500          45.250
 118794579.628 8  92567283.22746  22605826.240
  22605829.000          46.250          40.250
 118005998.010 8  91952771.56846  22455767.660
  22455770.500          46.750          41.750
 121802645.081 7  94911175.46845  23178261.800
  23178261.920          44.750          38.000
 125081803.170 7  97466365.79944  23802269.420
  23802271.080          44.250          33.750
 125203248.086 7  97560973.51144  23825376.220
  23825376.800          43.500          35.750
 131868830.085 5 102754997.17346  25093775.400
  25093778.840          38.250          39.750
 112035220.212 9  87300197.78547  21319575.800
  21319574.520          50.000          42.250
 108521742.115 9  84562476.73648  20650971.400
  20650973.120          50.750          46.000
 16  2 13  2  1  0.0000000  0 10G01G07G08G09G11G13G17G27G28G30
 130702509.331 6 101846130.10144  24871858.140
  24871862.460          41.500          35.250
 108002826.372 9  84158122.23748  20552216.740
  20552216.060          49.500          45.250
 118863718.375 8  92621157.58746  22618982.900
  22618985.620          46.500          39.750
 118105727.190 8  92030482.60146  22474745.420
  22474748.320          46.500          41.500
 121745240.040 8  94866444.34845  23167338.100
  23167338.200          45.000          38.250
 124982884.041 7  97389286.02345  23783446.220
  23783447.500          44.500          36.250
 125097534.287 7  97478599.21944  23805259.360
  23805259.140          44.000          33.750
 131971187.781 6 102834756.35945  25113253.440
  25113256.100          39.750          38.750
 112007550.493 9  87278637.00547  21314310.280
  21314309.240          49.750          42.500
 108491053.199 9  84538563.31048  20645131.440
  20645133.440          50.750          46.500
 16  2 13  2  1 30.0000000  0 11G01G05G07G08G09G11G13G17G27G28G30
 130627545.948 6 101787717.15545  24857592.980
  24857597.780          40.000          36.000
 130038476.535 5 101328705.08644  24745500.120
  24745504.860          38.750          35.500
 108015249.507 9  84167802.61948  20554580.740
  20554580.120          49.500          45.250
 118933293.888 8  92675372.27346  22632222.660
  22632225.580          46.250          40.250
 118205721.095 8  92108399.91546  22493773.680
  22493776.640          46.250          40.250
 121688207.161 8  94822003.21945  23156485.020
  23156484.860          45.250          38.000
 124884217.620 7  97312403.17644  23764670.840
  23764672.280          44.250          35.250
 124991947.219 7  97396323.70645  23785166.660
  23785166.980          44.500          36.000
 132073741.404 7 102914668.34344  25132769.180
  25132771.200          42.500          32.250
 111980181.359 9  87257310.44947  21309101.900
  21309101.160          49.750          42.250
 108460605.868 9  84514838.14148  20639337.440
  20639339.680          50.750          46.250
 16  2 13  2  2  0.0000000  0 11G01G05G07G08G09G11G13G17G27G28G30
 130552617.066 6 101729331.04144  24843334.440
  24843339.260          40.500          35.500
 130081993.602 6 101362614.49144  24753781.800
  24753785.060          41.000          34.500
 108027961.958 9  84177708.43348  20556999.800
  20556999.080          49.500          45.000
 119003281.646 8  92729908.22746  22645540.860
  22645543.740          45.000          40.500
 118305955.282 8  92186504.44346  22512847.720
  22512850.380          46.750          40.000
 121631527.366 8  94777837.20245  23145699.220
  23145698.920          46.250          36.750
 124785784.841 7  97235702.37745  23745939.640
  23745941.440          43.000          36.000
 124886467.422 7  97314131.75745  23765094.380
  23765095.380          44.750          38.250
 132176466.546 7 102994713.94043  25152317.620
  25152319.300          42.250          30.000
 111953090.661 9  87236200.85047  21303946.640
  21303945.920          50.000          42.250
 108430379.461 9  84491285.11348  20633585.460
  20633587.720          50.750          46.250
 16  2 13  2  2 30.0000000  0 11G01G05G07G08G09G11G13G17G27G28G30
 130477742.265 6 101670987.10744  24829085.980
  24829090.500          40.000          34.000
 130125840.378 7 101396780.81543  24762126.520
  24762128.340          42.750          31.250
 108040981.480 9  84187853.53147  20559477.500
  20559476.520          49.750          44.500
 119073695.937 7  92784776.51246  22658940.180
  22658942.920          44.750          39.500
 118406443.754 8  92264807.14546  22531970.240
  22531972.600          46.500          41.250
 121575220.005 8  94733961.40045  23134984.500
  23134983.900          46.000          37.500
 124687604.822 6  97159198.59344  23727256.240
  23727258.140          41.750          34.250
 124781113.971 8  97232038.27445  23745046.520
  23745047.460          45.500          37.250
 132279377.082 7 103074904.02244  25171901.500
  25171902.620          43.250          32.000
 111926293.659 9  87215320.09447  21298847.220
  21298846.580          49.750          42.500
 108400391.766 9  84467918.10148  20627879.040
  20627881.120          50.750          46.000
 16  2 13  2  3  0.0000000  0 11G01G05G07G08G09G11G13G17G27G28G30
 130402913.954 6 101612679.38443  24814846.540
  24814850.480          40.500          29.750
 130170003.496 7 101431193.66642  24770531.120
  24770531.660          43.500          27.000
 108054298.262 9  84198230.25748  20562011.680
  20562010.800          49.750          45.000
 119144523.996 8  92839967.21946  22672418.120
  22672421.220          45.500          39.750
 118507173.325 8  92343297.69746  22551138.440
  22551140.900          46.500          41.000
 121519277.454 8  94690369.86744  23124338.960
  23124338.340          46.250          35.500
 124589670.097 7  97082885.88443  23708619.640
  23708621.460          42.500          31.750
 124675879.311 8  97150037.36045  23725021.240
  23725022.260          45.750          37.500
 132382459.693 6 103155228.15544  25191517.980
  25191518.280          40.000          34.500
 111899779.036 9  87194659.37747  21293801.640
  21293800.880          49.750          43.000
 108370633.352 9  84444729.75748  20622216.320
  20622218.280          51.000          46.250
 16  2 13  2  3 30.0000000  0 11G01G05G07G08G09G11G13G17G27G28G30
 130328150.583 6 101554422.26144  24800619.780
  24800624.180          40.250          35.750
 130214495.746 7 101465862.95544  24778998.120
  24778997.580          43.750          33.500
 108067928.356 9  84208851.11948  20564605.380
  20564604.660          49.500          45.250
 119215778.514 8  92895490.21946  22685977.280
  22685980.300          45.750          40.000
 118608156.607 8  92421985.96446  22570354.960
  22570357.360          46.250          40.000
 121463717.588 8  94647076.51245  23113766.180
  23113765.560          45.500          36.750
 124491998.550 7  97006778.21145  23690033.500
  23690034.500          43.500          36.250
 124570780.562 8  97068142.38146  23705021.480
  23705022.880          45.500          39.250
 132485727.017 6 103235696.16944  25211169.000
  25211169.160          39.250          35.000
 111873561.422 9  87174230.09247  21288812.380
  21288811.720          49.250          42.750
 108341120.629 9  84421732.84048  20616600.320
  20616602.180          50.750          46.250
 16  2 13  2  4  0.0000000  0 10G01G05G07G08G09G11G13G17G28G30
 130253448.938 6 101496213.22544  24786404.500
  24786409.060          39.500          33.750
 130259308.875 7 101500782.31744  24787526.300
  24787525.500          44.750          32.750
 108081866.982 9  84219712.40347  20567257.780
  20567256.840          49.500          44.250
 119287450.958 8  92951338.88045  22699616.200
  22699619.080          45.250          38.500
 118709384.849 8  92500865.07746  22589618.080
  22589620.620          46.500          40.000
 121408537.033 8  94604078.72844  23103265.460
  23103264.800          46.000          35.500
 124394586.977 7  96930873.12444  23671497.000
  23671497.420          44.250          34.750
 124465814.471 8  96986350.77746  23685046.800
  23685048.320          45.250          40.250
 111847633.692 9  87154026.70347  21283878.380
  21283877.760          49.500          42.250
 108311848.662 9  84398923.53648  20611030.100
  20611031.660          50.750          46.000
 16  2 13  2  4 30.0000000  0 10G01G05G07G08G09G11G13G17G28G30
 130178806.088 6 101438050.03144  24772200.320
  24772204.860          39.500          34.250
 130304434.253 7 101535944.95244  24796113.460
  24796112.560          44.000          32.500
 108096108.591 9  84230809.77347  20569967.780
  20569966.680          49.500          44.750
 119359533.005 8  93007506.70346  22713333.060
  22713335.860          45.000          39.750
 118810849.489 8  92579928.42746  22608926.140
  22608928.820          46.250          40.250
 121353732.596 8  94561374.03845  23092836.380
  23092835.600          46.250          37.250
 124297432.104 7  96855168.04944  23653009.300
  23653009.300          44.500          34.750
 124360977.677 7  96904659.93746  23665096.540
  23665098.460          44.250          39.250
 111821988.927 9  87134043.80647  21278998.260
  21278997.600          49.500          42.750
 108282812.699 9  84376298.14348  20605504.780
  20605506.020          51.000          45.750
 16  2 13  2  5  0.0000000  0 10G01G05G07G08G09G11G13G17G28G30
 130104228.382 6 101379937.52144  24758008.660
  24758012.840          40.750          35.000
 130349872.293 7 101571351.27644  24804760.160
  24804760.060          44.500          33.500
 108110658.192 9  84242147.14248  20572736.460
  20572735.580          49.500          45.000
 119432025.313 8  93063994.24446  22727127.940
  22727130.360          45.000          40.750
 118912551.136 8  92659176.44146  22628279.340
  22628282.000          46.000          40.000
 121299310.343 8  94518967.11445  23082479.980
  23082479.320          46.000          36.000
 124200539.855 7  96779667.68745  23634571.240
  23634571.600          44.000          36.000
 124256275.959 7  96823074.26445  23645172.380
  23645173.860          43.250          38.250
 111796629.707 9  87114283.41747  21274172.600
  21274171.800          49.500          42.500
 108254017.141 9  84353860.07548  20600025.120
  20600026.280          50.750          45.750
 16  2 13  2  5 30.0000000  0 10G01G05G07G08G09G11G13G17G28G30
 130029722.503 6 101321881.05745  24743830.600
  24743834.680          39.000          36.750
 130395624.211 7 101607002.15244  24813466.060
  24813466.880          44.000          34.500
 108125519.306 9  84253727.23147  20575564.440
  20575563.780          49.750          44.750
 119504929.350 8  93120802.59946  22741001.140
  22741003.580          45.750          39.500
 119014490.831 8  92738609.96046  22647677.760
  22647680.400          46.500          40.500
 121245276.602 8  94476862.95144  23072197.500
  23072197.160          46.000          35.500
 124103916.776 7  96704377.04445  23616184.560
  23616184.980          43.000          36.000
 124151715.630 7  96741598.82744  23625274.620
  23625276.300          43.500          34.500
 111771558.598 9  87094747.51647  21269401.760
  21269400.900          49.750          42.500
 108225466.846 9  84331613.11048  20594592.080
  20594593.360          51.000          45.750
 16  2 13  2  6  0.0000000  0 10G01G05G07G08G09G11G13G17G28G30
 129955290.233 5 101263881.94545  24729666.240
  24729671.160          37.250          38.750
 130441686.597 7 101642894.88345  24822231.520
  24822232.760          43.000          36.750
 108140692.096 9  84265550.19147  20578451.660
  20578451.000          49.750          44.500
 119578241.007 8  93177928.57446  22754951.720
  22754954.300          45.500          39.000
 119116664.478 8  92818225.76846  22667120.840
  22667123.420          46.000          41.000
 121191632.753 8  94435062.59344  23061989.300
  23061989.060          45.750          35.500
 124007564.072 7  96629297.11744  23597848.640
  23597849.780          42.250          34.000
 124047297.143 7  96660233.89845  23605404.700
  23605406.120          44.000          36.500
 111746773.717 9  87075434.65047  21264685.420
  21264684.640          49.750          42.750
 108197161.541 9  84309557.04448  20589205.780
  20589207.300          51.000          46.000
 16  2 13  2  6 30.0000000  0 10G01G05G07G08G09G11G13G17G28G30
 129880931.576 5 101205940.16545  24715516.460
  24715521.040          38.000          38.250
 130488053.464 7 101679024.91645  24831054.500
  24831056.320          42.000          38.000
 108156173.836 9  84277613.90648  20581397.700
  20581396.820          49.750          45.000
 119651955.084 8  93235368.12346  22768978.960
  22768981.680          45.750          39.000
 119219066.503 8  92898019.54046  22686607.400
  22686609.960          46.500          40.500
 121138378.171 8  94393565.58944  23051855.300
  23051854.980          45.750          34.000
 123911481.778 7  96554427.88344  23579564.500
  23579565.880          44.000          35.250
 123943020.100 8  96578979.20745  23585561.500
  23585562.780          45.500          38.750
 111722270.472 9  87056341.24947  21260022.640
  21260021.980          49.750          43.000
 108169099.536 9  84287690.56948  20583865.740
  20583867.280          50.750          45.750
 16  2 13  2  7  0.0000000  0 10G01G05G07G08G09G11G13G17G28G30
 129806650.848 6 101148059.09744  24701381.620
  24701385.520          39.500          35.000
 130534723.510 6 101715391.15945  24839935.660
  24839937.580          39.500          38.250
 108171966.999 9  84289920.27547  20584403.120
  20584402.140          49.750          44.500
 119726070.481 8  93293120.38846  22783082.720
  22783085.600          45.750          39.250
 119321695.541 8  92977990.17946  22706137.140
  22706139.680          46.000          40.250
 121085517.149 8  94352375.24444  23041796.000
  23041795.500          45.250          35.250
 123815673.892 8  96479772.43144  23561333.200
  23561334.040          45.500          35.250
 123838888.889 8  96497838.10245  23565746.200
  23565746.740          46.250          37.250
 111698049.480 9  87037467.78447  21255413.540
  21255412.920          49.750          42.500
 108141283.283 9  84266015.59548  20578572.220
  20578573.800          50.500          46.000
 16  2 13  2  7 30.0000000  0 10G01G05G07G08G09G11G13G17G28G30
 129732451.161 5 101090241.25144  24687261.760
  24687265.580          38.250          35.500
 130581694.129 5 101751991.57745  24848873.500
  24848875.760          38.250          38.250
 108188072.571 9  84302470.08247  20587467.900
  20587467.220          49.750          44.750
 119800584.537 8  93351183.29945  22797262.320
  22797264.860          45.500          38.500
 119424548.989 8  93058135.70946  22725709.540
  22725712.100          46.250          40.250
 121033052.181 8  94311493.49244  23031811.920
  23031811.900          45.250          34.250
 123720143.373 8  96405333.07944  23543154.800
  23543154.740          45.750          34.750
 123734905.676 8  96416812.37845  23545958.860
  23545959.240          46.750          37.500
 111674109.932 9  87018813.63847  21250858.060
  21250857.440          49.750          43.000
 108113714.050 9  84244533.09548  20573325.740
  20573327.460          50.500          45.750
 16  2 13  2  8  0.0000000  0 10G01G05G07G08G09G11G13G17G28G30
 129658337.866 6 101032490.67545  24673158.380
  24673162.940          39.500          37.500
 130628965.164 4 101788826.03245  24857868.680
  24857871.180          35.000          38.000
 108204493.495 9  84315265.62447  20590592.680
  20590592.100          49.500          44.750
 119875497.146 8  93409556.76145  22811517.740
  22811520.480          45.000          38.750
 119527626.381 8  93138455.72446  22745324.480
  22745327.020          46.000          39.500
 120980987.791 8  94270923.88444  23021904.400
  23021904.500          46.000          35.750
 123624894.961 8  96331113.60344  23525029.840
  23525029.380          45.000          34.500
 123631075.138 8  96335905.59245  23526200.600
  23526201.020          46.500          37.750
 111650452.945 9  87000379.64947  21246356.300
  21246355.600          49.750          42.750
 108086395.173 9  84223245.67348  20568127.180
  20568128.940          50.750          45.750
 16  2 13  2  8 30.0000000  0 10G01G05G07G08G09G11G13G17G28G30
 129584309.619 6 100974806.36544  24659071.320
  24659075.840          40.250          35.250
 130676529.439 6 101825889.01546  24866919.480
  24866922.200          40.250          39.250
 108221226.345 9  84328304.21148  20593776.920
  20593776.220          49.750          45.500
 119950801.531 8  93468235.52146  22825847.860
  22825850.320          45.500          39.750
 119630920.665 8  93218944.73746  22764980.700
  22764983.360          46.000          39.500
 120929322.981 8  94230665.63644  23012073.200
  23012072.800          46.000          34.500
 123529927.098 7  96257112.73244  23506957.920
  23506957.600          44.000          35.500
 123527395.495 8  96255116.38746  23506470.700
  23506471.220          46.250          39.250
 111627073.064 9  86982161.59647  21241907.220
  21241906.460          49.750          42.750
 108059323.477 9  84202150.86748  20562975.700
  20562977.420          50.750          46.000
 16  2 13  2  9  0.0000000  0 10G01G05G07G08G09G11G13G17G28G30
 129510374.158 6 100917194.38345  24645002.080
  24645006.560          39.750          36.750
 130724389.049 7 101863182.17545  24876027.200
  24876029.200          42.250          38.000
 108238276.542 9  84341590.08248  20597021.640
  20597020.700          50.000          45.500
 120026499.647 8  93527221.07646  22840252.740
  22840255.040          46.000          40.000
 119734433.920 8  93299604.40646  22784678.600
  22784681.260          46.250          39.250
 120878064.821 8  94190724.27844  23002319.040
  23002318.420          45.750          34.000
 123435247.279 7  96183336.33044  23488940.640
  23488940.800          44.250          35.000
 123423874.155 8  96174450.52044  23486771.040
  23486771.520          45.250          35.750
 111603974.392 9  86964162.65647  21237511.540
  21237510.820          49.750          42.500
 108032504.913 9  84181253.30748  20557872.300
  20557874.060          50.750          46.250
 16  2 13  2  9 30.0000000  0 10G01G05G07G08G09G11G13G17G28G30
 129436532.063 6 100859655.12345  24630950.580
  24630954.660          41.250          36.750
 130772538.837 7 101900701.45746  24885190.160
  24885191.860          44.500          39.000
 108255642.421 9  84355121.94948  20600326.220
  20600325.360          49.500          45.500
 120102586.439 8  93586509.48746  22854731.420
  22854734.140          45.250          40.000
 119838160.952 8  93380430.66145  22804417.160
  22804419.720          46.000          38.500
 120827213.096 8  94151099.59444  22992642.140
  22992641.460          45.750          33.250
 123340855.686 7  96109784.50844  23470978.420
  23470978.840          44.500          35.000
 123320511.052 8  96093907.98245  23467101.440
  23467102.100          45.250          38.000
 111581153.358 9  86946380.06247  21233168.640
  21233168.080          49.500          43.250
 108005938.100 9  84160551.91348  20552816.880
  20552818.500          50.750          46.000
 16  2 13  2 10  0.0000000  0 10G01G05G07G08G09G11G13G17G28G30
 129362784.450 6 100802189.45144  24616917.340
  24616920.840          40.750          35.000
 130820974.097 8 101938443.20246  24894407.560
  24894409.020          45.000          39.000
 108273322.980 9  84368899.00748  20603690.520
  20603689.940          49.500          45.500
 120179057.336 8  93646097.20046  22869283.420
  22869285.960          45.000          39.750
 119942096.988 8  93461419.77046  22824195.600
  22824198.020          46.000          39.000
 120776768.576 8  94111792.22744  22983042.960
  22983042.300          46.250          33.750
 123246753.038 7  96036457.83945  23453071.360
  23453072.160          44.500          36.000
 123217306.215 8  96013488.76745  23447462.020
  23447462.800          45.000          38.000
 111558606.878 9  86928811.41147  21228878.080
  21228877.420          49.500          43.250
 107979622.219 9  84140046.04648  20547809.280
  20547810.440          50.750          46.000
 16  2 13  2 10 30.0000000  0 10G01G05G07G08G09G11G13G17G28G30
 129289138.339 6 100744802.93245  24602902.640
  24602906.160          40.750          38.000
 130869696.547 8 101976408.77045  24903679.340
  24903680.620          45.750          36.750
 108291322.843 9  84382924.88148  20607115.780
  20607115.000          49.750          45.250
 120255913.964 8  93705985.49546  22883908.720
  22883910.820          45.250          39.750
 120046243.436 8  93542572.85246  22844014.160
  22844016.200          46.000          39.000
 120726738.005 8  94072807.42244  22973522.620
  22973521.760          46.250          35.000
 123152946.130 8  95963361.62344  23435220.460
  23435221.140          45.000          34.750
 123114266.231 8  95933197.97746  23427854.060
  23427854.940          46.000          39.250
 111536337.721 9  86911458.84947  21224640.360
  21224639.520          49.500          43.500
 107953562.522 9  84119739.81148  20542850.320
  20542851.160          50.750          45.750
 16  2 13  2 11  0.0000000  0 10G01G05G07G08G09G11G13G17G28G30
 129215597.586 6 100687498.50144  24588907.760
  24588911.780          41.000          35.500
 130918703.789 8 102014596.25644  24913005.300
  24913006.340          46.000          32.500
 108309643.770 9  84397200.94048  20610602.180
  20610601.220          49.500          45.500
 120333154.741 8  93766173.10746  22898607.180
  22898609.520          45.750          39.250
 120150598.356 8  93623888.34845  22863872.440
  22863874.220          45.750          38.250
 120677124.598 8  94034147.69044  22964081.480
  22964080.540          45.750          34.500
 123059438.791 8  95890498.83144  23417426.680
  23417427.140          45.000          34.250
 123011395.115 8  95853038.77645  23408278.400
  23408279.260          46.500          37.750
 111514346.263 9  86894322.66547  21220455.660
  21220454.520          49.750          43.000
 107927760.957 9  84099634.72048  20537940.360
  20537941.340          50.750          46.250
 16  2 13  2 11 30.0000000  0 10G01G05G07G08G09G11G13G17G28G30
 129142161.642 6 100630275.70145  24574933.300
  24574937.440          41.500          37.250
 130967989.592 8 102053000.82942  24922384.000
  24922384.720          45.000          27.250
 108328282.968 9  84411724.99748  20614149.200
  20614148.200          50.000          45.000
 120410773.351 8  93826655.17646  22913377.420
  22913379.480          45.750          39.250
 120255155.410 8  93705361.36145  22883769.000
  22883770.720          46.000          37.750
 120627927.389 8  93995812.23344  22954719.580
  22954718.640          46.250          34.750
 122966229.812 8  95817868.47444  23399689.660
  23399689.960          45.500          35.000
 122908690.980 8  95773009.69145  23388734.580
  23388735.440          46.250          38.000
 111492627.606 9  86877399.06547  21216322.860
  21216321.360          50.250          42.500
 107902215.137 9  84079728.90548  20533079.160
  20533080.340          51.000          46.000
 16  2 13  2 12  0.0000000  0 10G01G05G07G08G09G11G13G17G28G30
 129068837.362 6 100573139.94645  24560980.200
  24560984.280          41.500          37.750
 131017555.155 7 102091623.39842  24931815.980
  24931815.900          42.750          27.250
 108347245.018 9  84426500.63048  20617757.660
  20617756.640          49.500          45.000
 120488770.845 7  93887432.45046  22928219.720
  22928221.920          44.500          39.750
 120359915.749 7  93786992.78345  22903704.020
  22903705.760          44.750          38.750
 120579152.554 8  93957805.92445  22945437.780
  22945437.080          46.000          37.000
 122873325.853 7  95745475.84144  23382010.460
  23382010.820          44.250          33.250
 122806159.999 8  95693115.51445  23369223.440
  23369224.300          46.250          37.250
 111471184.552 9  86860690.22747  21212242.580
  21212240.720          50.000          43.250
 107876929.974 9  84060026.20548  20528267.500
  20528268.900          50.750          46.250
 16  2 13  2 12 30.0000000  0 10G01G05G07G08G09G11G13G17G28G30
 128995625.036 6 100516091.43145  24547048.240
  24547052.900          40.750          36.500
 131067395.120 6 102130459.77843  24941299.960
  24941299.940          40.250          28.750
 108366527.997 9  84441526.34048  20621426.840
  20621426.060          49.250          45.000
 120567142.129 7  93948500.96946  22943133.220
  22943135.860          44.750          39.000
 120464873.878 8  93868778.32246  22923676.760
  22923678.740          45.000          39.750
 120530799.649 8  93920128.38044  22936236.420
  22936235.880          45.750          35.500
 122780727.078 7  95673320.99244  23364389.420
  23364389.900          43.750          35.750
 122703802.179 8  95613356.24845  23349745.380
  23349745.900          45.250          38.500
 111450013.296 9  86844193.17147  21208213.940
  21208212.080          50.000          42.750
 107851903.937 9  84040525.41548  20523505.080
  20523506.680          50.750          46.250
 16  2 13  2 13  0.0000000  0 10G01G05G07G08G09G11G13G17G28G30
 128922526.762 6 100459131.75245  24533137.720
  24533142.660          41.000          36.500
 131117505.898 5 102169507.15444  24950835.620
  24950835.480          37.500          33.500
 108386131.466 9  84456801.77748  20625157.060
  20625156.480          49.250          45.000
 120645883.620 7  94009857.98546  22958117.380
  22958119.900          44.500          40.750
 120570026.003 8  93950715.01645  22943686.540
  22943688.620          45.250          38.500
 120482870.388 8  93882780.97245  22927115.920
  22927115.440          46.000          37.750
 122688435.068 7  95601405.22444  23346826.600
  23346827.520          44.250          34.250
 122601619.121 8  95533733.16345  23330300.520
  23330301.000          45.500          37.250
 111429111.813 9  86827906.33247  21204236.640
  21204234.580          50.000          42.750
 107827137.191 9  84021226.66948  20518792.100
  20518793.720          50.750          46.500
 16  2 13  2 13 30.0000000  0 10G01G05G07G08G09G11G13G17G28G30
 128849551.346 6 100402267.82844  24519250.880
  24519255.380          41.250          34.500
 131167890.322 5 102208767.66244  24960422.740
  24960423.500          38.500          33.500
 108406062.226 9  84472332.24948  20628949.780
  20628949.240          49.750          45.250
 120724998.344 7  94071505.85546  22973172.620
  22973175.000          44.750          39.000
 120675375.291 8  94032805.37345  22963733.740
  22963735.960          45.750          38.000
 120435373.229 8  93845770.24744  22918077.600
  22918076.740          46.000          35.500
 122596458.300 7  95529735.06245  23329323.720
  23329324.760          44.750          37.250
 122499618.864 8  95454252.55845  23310890.220
  23310891.180          45.000          38.500
 111408484.881 9  86811833.43147  21200311.500
  21200309.520          50.000          43.000
 107802636.716 9  84002135.40348  20514129.800
  20514131.380          50.750          46.250
 16  2 13  2 14  0.0000000  0 10G01G05G07G08G09G11G13G17G28G30
 128776697.202 7 100345498.41544  24505387.280
  24505391.360          42.250          35.250
 131218541.120 5 102248235.77146  24970060.600
  24970062.680          38.750          39.000
 108426316.209 9  84488114.58247  20632804.040
  20632803.320          49.750          44.500
 120804478.906 8  94133438.74846  22988297.340
  22988299.980          45.500          39.250
 120780914.284 8  94115043.53445  22983817.320
  22983819.360          46.250          38.250
 120388305.946 8  93809094.50444  22909120.720
  22909120.160          45.250          35.250
 122504795.032 8  95458309.19444  23311880.820
  23311881.640          45.500          35.500
 122397798.629 8  95374912.22045  23291514.140
  23291515.280          46.000          38.500
 111388126.822 9  86795970.04547  21196437.400
  21196435.700          50.000          43.000
 107778399.044 9  83983248.93748  20509517.440
  20509519.060          50.750          45.750
 16  2 13  2 14 30.0000000  0 10G01G05G07G08G09G11G13G17G28G30
 128703964.537 7 100288823.63345  24491546.720
  24491550.900          43.000          36.000
 131269452.524 6 102287906.98345  24979748.780
  24979750.540          40.500          37.500
 108446891.153 9  84504147.01047  20636719.320
  20636718.380          49.500          44.750
 120884320.299 8  94195652.83146  23003490.620
  23003492.960          45.250          40.000
 120886637.394 8  94197425.18945  23003936.040
  23003937.800          46.000          37.500
 120341667.675 8  93772753.02645  22900245.560
  22900245.400          46.250          38.000
 122413444.950 8  95387127.36645  23294497.560
  23294498.260          45.750          36.750
 122296158.615 8  95295712.29545  23272172.720
  23272173.760          46.500          38.750
 111368033.663 9  86780313.06647  21192613.700
  21192611.960          49.750          42.750
 107754422.433 9  83964565.87948  20504954.760
  20504956.500          50.750          46.000
 16  2 13  2 15  0.0000000  0 10G01G05G07G08G09G11G13G17G28G30
 128631361.797 7 100232250.06745  24477730.900
  24477735.280          43.500          36.750
 131320627.320 7 102327783.40344  24989487.300
  24989488.900          42.500          35.250
 108467793.500 9  84520434.55747  20640696.960
  20640695.980          49.750          44.750
 120964524.853 7  94258149.88545  23018752.820
  23018755.180          44.750          38.750
 120992547.311 8  94279952.39546  23024090.160
  23024091.840          45.000          39.750
 120295466.711 8  93736752.36045  22891453.940
  22891453.540          45.750          38.500
 122322416.107 8  95316195.85745  23277175.260
  23277176.120          45.250          36.250
 122194706.498 8  95216658.77546  23252867.120
  23252867.840          46.750          39.750
 111348209.856 9  86764865.97747  21188841.200
  21188839.540          49.750          43.250
 107730713.536 9  83946091.42548  20500443.140
  20500444.960          50.750          46.500
 16  2 13  2 15 30.0000000  0 10G01G05G07G08G09G11G13G17G28G30
 128558888.991 7 100175777.78845  24463939.920
  24463944.180          42.500          38.000
 131372060.173 7 102367860.93046  24999274.680
  24999276.020          42.250          39.750
 108489020.914 9  84536975.40948  20644736.420
  20644735.500          49.750          45.000
 121045087.105 7  94320925.67546  23034083.320
  23034085.820          44.250          40.500
 121098638.177 8  94362620.60045  23044278.640
  23044280.160          45.250          38.500
 120249702.110 8  93701091.69145  22882745.200
  22882744.720          45.500          36.750
 122231708.251 8  95245514.47245  23259914.020
  23259914.920          45.000          36.000
 122093441.704 8  95137751.24046  23233597.280
  23233597.720          47.500          39.000
 111328651.076 9  86749625.38647  21185119.080
  21185117.680          49.750          43.000
 107707270.408 9  83927824.07248  20495981.980
  20495983.940          50.500          46.000
 16  2 13  2 16  0.0000000  0 10G01G05G07G08G09G11G13G17G28G30
 128486552.569 6 100119411.76745  24450174.620
  24450179.060          41.750          38.000
 131423750.781 7 102408139.30345  25009111.280
  25009112.240          43.000          36.000
 108510577.372 9  84553772.66347  20648838.500
  20648837.580          49.750          44.250
 121126007.760 7  94383980.73445  23049482.060
  23049484.320          44.500          38.250
 121204910.725 7  94445430.34945  23064501.340
  23064503.200          43.500          37.500
 120204379.715 8  93665775.58245  22874120.400
  22874119.980          45.250          38.500
 122141327.611 7  95175088.06544  23242715.020
  23242715.880          44.750          34.250
 121992370.217 8  95058994.31546  23214364.080
  23214364.300          47.000          39.000
 111309359.707 9  86734593.17147  21181447.880
  21181446.640          49.500          43.000
 107684097.690 9  83909767.43248  20491572.300
  20491574.260          50.750          46.000
 16  2 13  2 16 30.0000000  0 10G01G05G07G08G09G11G13G17G28G30
 128414352.672 7 100063152.17746  24436435.100
  24436440.040          42.750          39.000
 131475693.885 7 102448614.40345  25018996.060
  25018996.460          43.500          38.250
 108532460.837 9  84570824.72348  20653002.920
  20653001.820          50.000          45.000
 121207281.418 8  94447310.87446  23064948.300
  23064950.300          45.000          39.000
 121311359.290 7  94528377.25546  23084757.540
  23084759.680          43.000          39.000
 120159499.067 8  93630803.69145  22865579.800
  22865579.680          45.750          37.250
 122051274.049 8  95104916.50144  23225578.400
  23225579.160          45.500          34.500
 121891491.267 8  94980387.41246  23195167.560
  23195167.480          46.500          39.500
 111290332.020 9  86719766.42847  21177826.800
  21177825.960          49.500          43.250
 107661193.616 9  83891920.11348  20487213.840
  20487215.440          50.750          45.750
 16  2 13  2 17  0.0000000  0 11G01G05G07G08G09G11G13G17G19G28G30
 128342292.935 7 100007001.77145  24422722.600
  24422727.320          42.500          36.000
 131527887.267 7 102489284.56245  25028928.660
  25028928.940          43.250          37.000
 108554672.503 9  84588132.53748  20657229.720
  20657228.680          49.750          45.250
 121288905.837 8  94510914.30646  23080481.060
  23080482.880          45.000          39.500
 121417981.598 7  94611459.53746  23105046.760
  23105049.240          43.250          39.500
 120115063.083 8  93596178.31545  22857124.100
  22857123.660          45.500          38.500
 121961550.664 8  95035002.19244  23208504.920
  23208504.880          45.750          35.500
 121790807.641 8  94901932.72845  23176007.940
  23176007.660          46.250          38.250
 133120738.877 5 103730454.89145  25332035.200
  25332036.060          38.250          36.250
 111271567.231 9  86705144.55247  21174255.880
  21174255.440          49.500          43.750
 107638559.921 9  83874283.48848  20482906.800
  20482908.080          50.750          45.750
 16  2 13  2 17 30.0000000  0 11G01G05G07G08G09G11G13G17G19G28G30
 128270374.871 6  99950961.75245  24409036.960
  24409041.480          41.500          38.250
 131580326.630 7 102530146.42944  25038907.660
  25038907.440          42.500          33.500
 108577211.463 9  84605695.36148  20661518.640
  20661517.820          49.500          45.000
 121370876.871 7  94574787.85246  23096079.680
  23096081.500          44.250          39.500
 121524773.441 7  94694673.94446  23125368.220
  23125371.160          42.750          39.000
 120071072.761 8  93561900.19145  22848753.000
  22848752.700          45.250          37.750
 121872158.588 8  94965346.08645  23191494.300
  23191494.340          45.750          37.000
 121690320.445 8  94823631.08145  23156885.720
  23156885.500          45.000          38.500
 132999469.879 5 103635959.86145  25308956.120
  25308958.440          38.750          37.500
 111253062.762 9  86690725.50947  21170734.660
  21170734.280          49.500          43.250
 107616196.213 9  83856857.24948  20478651.120
  20478652.420          50.750          45.750
 16  2 13  2 18  0.0000000  0 11G01G05G07G08G09G11G13G17G19G28G30
 128198609.351 6  99895040.60444  24395380.420
  24395384.740          40.250          35.000
 131633016.808 6 102571203.71144  25048934.520
  25048933.840          39.750          35.000
 108600086.372 9  84623519.96348  20665871.460
  20665870.600          49.250          45.000
 121453199.697 7  94638935.49546  23111745.180
  23111747.120          44.000          39.250
 121631739.879 7  94778024.37146  23145723.200
  23145726.580          43.750          39.750
 120027537.916 8  93527976.98045  22840468.440
  22840468.040          45.000          38.000
 121783108.399 8  94895956.38144  23174548.740
  23174548.360          45.250          35.500
 121590040.135 8  94745490.67245  23137802.800
  23137802.760          46.000          38.500
 132878173.649 6 103541443.58644  25285874.280
  25285876.140          40.250          33.250
 111234825.497 9  86676514.67847  21167264.320
  21167263.660          49.500          43.750
 107594111.559 9  83839648.43448  20474448.660
  20474449.940          50.750          46.250
 16  2 13  2 18 30.0000000  0 11G01G05G07G08G09G11G13G17G19G28G30
 128126994.534 6  99839236.88445  24381752.460
  24381756.980          39.750          36.500
 131685950.095 6 102612450.44243  25059006.980
  25059007.180          39.750          30.250
 108623293.166 9  84641603.18547  20670287.500
  20670286.580          49.500          44.250
 121535866.655 7  94703351.29845  23127476.140
  23127478.080          44.000          36.750
 121738873.171 7  94861504.84346  23166110.120
  23166113.320          44.000          40.000
 119984456.063 8  93494406.75445  22832270.260
  22832269.620          45.250          38.500
 121694398.108 8  94826831.53144  23157667.660
  23157667.360          45.500          32.750
 121489963.642 8  94667509.05646  23118758.880
  23118758.900          46.500          39.500
 132756847.437 6 103446903.88644  25262786.500
  25262788.020          41.250          34.750
 111216849.401 9  86662507.35747  21163843.700
  21163842.820          49.750          43.000
 107572302.213 9  83822654.16348  20470298.520
  20470299.880          50.750          46.250
 16  2 13  2 19  0.0000000  0 11G01G05G07G08G09G11G13G17G19G28G30
 128055532.802 6  99783552.46444  24368153.640
  24368158.600          39.750          35.500
 131739123.360 6 102653884.16644  25069125.060
  25069125.420          39.000          32.000
 108646831.500 9  84659944.75947  20674766.660
  20674765.860          49.500          44.750
 121618874.515 7  94768032.75545  23143271.620
  23143273.780          43.500          38.000
 121846169.896 7  94945112.65146  23186528.020
  23186531.380          43.500          40.250
 119941828.926 7  93461190.85245  22824158.540
  22824157.820          44.750          37.000
 121606029.463 8  94757972.90444  23140851.580
  23140851.460          45.750          35.500
 121390092.749 8  94589687.66746  23099754.100
  23099754.020          47.250          39.000
