     2.11           OBSERVATION DATA    G (GPS)             RINEX VERSION / TYPE
teqc  2016Nov7      root                20180417 15:41:10UTCPGM / RUN BY / DATE
Linux 2.4.21-27.ELsmp|Opteron|gcc|Linux x86_64|=+           COMMENT
     2.11           OBSERVATION DATA    G (GPS)             COMMENT
teqc  2015Nov6      NOAA/NOS/NGS/CORS   20160214 10:18:44UTCCOMMENT
Solaris x86 5.10|AMD64|cc SC5.8 -xarch=amd64|=+|=+          COMMENT
teqc  2015Nov6      NOAA/NOS/NGS/CORS   20160214 10:18:32UTCCOMMENT
teqc  2015Nov6      UNAVCO Archive Ops  20160214 04:03:57UTCCOMMENT
BIT 2 OF LLI FLAGS DATA COLLECTED UNDER A/S CONDITION       COMMENT
input file: seat201602130000.bnx                            COMMENT
RINEX file created by UNAVCO GPS Archive.                   COMMENT
For more information contact archive@unavco.org             COMMENT
Monument ID: 18010                                          COMMENT
UNAVCO 4-char name:   SEAT                                  COMMENT
4-char name from Log or data file: SEAT                     COMMENT
Monument location: 47.653977 -122.309476 44.2292            COMMENT
Visit ID: 101410                                            COMMENT
End of DB comments                                          COMMENT
 SNR is mapped to RINEX snr flag value [0-9]                COMMENT
  L1 & L2: min(max(int(snr_dBHz/6), 0), 9)                  COMMENT
teqc edited: all SBAS satellites excluded                   COMMENT
teqc edited: all Compass satellites excluded                COMMENT
teqc edited: all QZSS satellites excluded                   COMMENT
Forced Modulo Decimation to 30 seconds                      COMMENT
SEAT                                                        MARKER NAME
40457M002                                                   MARKER NUMBER
UW                  University of Washington                OBSERVER / AGENCY
4552261579          TRIMBLE NETRS       1.3-0               REC # / TYPE / VERS
0220061145          TRM29659.00     UNAV                    ANT # / TYPE
 -2300592.8570 -3637848.2430  4691079.2150                  APPROX POSITION XYZ
        0.1233        0.0000        0.0000                  ANTENNA: DELTA H/E/N
     1     1                                                WAVELENGTH FACT L1/2
     8    L1    L2    C1    C2    P1    P2    S1    S2      # / TYPES OF OBSERV
    30.0000                                                 INTERVAL
teqc.w windowed: start @ 2016 Feb 13 00:00:00.000           COMMENT
teqc.w windowed:  end  @ 2016 Feb 13 05:00:00.000           COMMENT
teqc.w edited: all GLONASS satellites excluded              COMMENT
  2016     2    13     2    31   30.0000000     GPS         TIME OF FIRST OBS
                                                            END OF HEADER
 16  2 13  2 31 30.0000000  0 12G07G08G05G30G28G11G20G01G13G17G15G09
 112127936.659 7  87372441.48245  21337205.837
  21337192.1954         47.600          35.7004
 121331737.005 6  94544203.46844  23088643.417
  23088633.4684         41.100          25.8004
 131250313.215 5 102272924.39142  24976103.080
  24976093.7174         35.500          17.4004
 106383477.980 8  82896232.26947  20244083.964
  20244073.3124         51.000          42.5004
 109271739.707 7  85146774.44346  20793702.211
  20793688.8634         47.300          39.0004
 122699056.673 6  95609603.51643  23348852.173
  23348839.2354         38.500          21.7004
 129675052.874 5                  24676342.276
                        33.800
                                  25076649.931
                        33.000
 113843522.781 7  88709186.20945  21663693.356
  21663680.9464         46.800          34.3004
 125039338.812 6  97433222.45444  23794192.718
  23794180.9534         38.900          25.6004
 129040314.346 6 100550827.36142  24555550.994
  24555540.5774         36.300          15.6004
 132293408.768 5 103085742.10942  25174601.156
  25174592.0874         34.200          15.6004
 16  2 13  2 32  0.0000000  0 12G07G08G05G30G28G11G20G01G13G17G15G09
 112190904.162 7  87421507.05845  21349187.528
  21349174.6494         46.700          35.6004
 121406485.309 6  94602448.90144  23102867.256
  23102857.8944         40.000          25.8004
 131331908.271 6 102336504.89742  24991630.458
  24991621.3304         36.400          16.9004
 106398932.399 8  82908274.69747  20247024.622
  20247014.2644         51.200          42.2004
 109245789.942 8  85126553.86346  20788764.140
  20788750.3234         48.300          39.1004
 122640854.086 6  95564250.87243  23337775.703
  23337763.2354         38.100          22.3004
 129709090.990 5                  24682821.977
                        34.600
                                  25060199.985
                        32.300
 113786648.969 8  88664868.98645  21652870.812
  21652858.0504         48.000          33.8004
 124933004.025 6  97350364.22544  23773958.789
  23773946.4374         39.900          25.5004
 128948898.487 6 100479594.29342  24538154.915
  24538144.7904         37.000          16.9004
 132410239.740 5                  25196834.308
                        34.100
 16  2 13  2 32 30.0000000  0 11G07G08G05G30G28G11G20G01G13G17G15
 112254199.196 7  87470827.87545  21361231.876
  21361219.2314         46.500          35.5004
 121481651.413 6  94661019.89944  23117170.633
  23117161.0364         41.100          25.3004
 131413666.488 6 102400212.56542  25007190.501
  25007179.6144         37.200          16.9004
 106414785.138 8  82920627.48547  20250041.095
  20250030.9124         50.500          42.8004
 109220192.869 7  85106608.11746  20783893.164
  20783879.5234         47.400          38.9004
 122583102.315 6  95519249.51543  23326785.690
  23326773.4564         38.200          22.5004
 129743592.296 5                  24689387.352
                        34.000
                                  25043778.011
                        32.400
 113730303.852 7  88620963.72545  21642149.135
  21642135.7874         47.200          34.5004
 124826816.070 6  97267620.37844  23753752.678
  23753739.9754         38.800          24.6004
 128857778.381 6 100408591.71943  24520817.439
  24520805.2054         38.100          19.6004
 16  2 13  2 33  0.0000000  0 11G07G08G05G30G28G11G20G01G13G17G15
 112317815.033 7  87520398.66245  21373337.966
  21373324.3834         46.000          35.3004
 121557227.515 6  94719910.36244  23131553.032
  23131542.6734         40.600          26.6004
 131495578.617 5 102464040.12242  25022775.992
  25022767.2154         34.700          16.9004
 106431030.457 8  82933286.19447  20253133.045
  20253122.1004         51.200          42.3004
 109194942.453 8  85086932.49446  20779088.077
  20779074.2604         48.100          38.8004
 122525798.170 6  95474596.97643  23315880.828
  23315868.5934         39.000          22.3004
 129778575.901 5                  24696040.582
                        34.400
                                  25027380.339
                        33.200
 113674483.365 8  88577467.27445  21631526.860
  21631513.2784         48.100          33.6004
 124720771.961 6  97184988.67444  23733570.526
  23733560.1684         38.600          24.5004
 128766950.973 6 100337817.16743  24503531.733
  24503520.5544         39.000          19.6004
 16  2 13  2 33 30.0000000  0 11G07G08G05G30G28G11G20G01G13G17G15
 112381750.048 7  87570218.16446  21385503.892
  21385491.3644         46.700          36.0004
 121633209.982 6  94779117.48244  23146011.449
  23146001.9694         41.100          25.3004
 131577640.402 5 102527984.35142  25038393.108
  25038383.5704         35.500          16.9004
 106447667.517 8  82946250.15146  20256298.660
  20256287.9504         51.400          41.9004
 109170037.001 7  85067525.66746  20774348.848
  20774335.2074         47.300          38.9004
 122468942.985 6  95430294.22943  23305063.396
  23305049.5204         39.000          22.0004
                                  24702780.234
                        31.500
 131433739.435 5                  25011010.356
                        32.800
 113619188.509 8  88534380.39245  21621004.238
  21620990.7144         48.000          33.9004
 124614871.911 6  97102469.18844  23713418.751
  23713407.5714         38.700          24.5004
 128676417.282 6 100267271.47843  24486303.363
  24486292.3014         39.500          20.4004
 16  2 13  2 34  0.0000000  0 11G07G08G05G30G28G11G20G01G13G17G15
 112446013.090 7  87620293.25845  21397732.597
  21397720.0704         45.100          35.6004
 121709605.417 6  94838646.39244  23160549.542
  23160539.4764         40.900          25.5004
 131659858.597 5 102592050.41142  25054038.229
  25054029.6874         35.200          16.3004
 106464705.813 8  82959526.76047  20259540.938
  20259530.1104         51.200          42.3004
 109145485.490 7  85048394.64446  20769676.190
  20769663.5464         46.900          39.0004
 122412548.966 6  95386350.87443  23294330.998
  23294318.0014         39.000          22.2004
                                  24709609.144
                        31.800
 131347848.449 5                  24994665.166
                        31.800
 113564430.999 7  88491712.22745  21610583.995
  21610570.8824         47.200          34.1004
 124509128.744 6  97020071.94444  23693296.712
  23693285.2404         38.800          25.4004
 128586189.138 6 100196963.90843  24469133.823
  24469122.5274         39.500          21.1004
 16  2 13  2 34 30.0000000  0 11G07G08G05G30G28G11G20G01G13G17G15
 112510597.419 7  87670618.71345  21410022.529
  21410010.2364         45.500          35.7004
 121786404.951 6  94898490.20644  23175163.452
  23175154.0904         40.800          24.5004
 131742224.045 5 102656231.22442  25069711.220
  25069702.7364         33.100          16.3004
 106482139.377 8  82973111.36947  20262858.537
  20262847.7094         51.300          42.0004
 109121281.250 7  85029534.22346  20765070.772
  20765057.4834         47.500          38.7004
 122356612.261 6  95342763.86143  23283686.691
  23283673.9294         40.800          22.6004
 129886235.173 5                  24716527.709
                        32.000
 131262124.888 4                  24978350.773
                        29.600
 113510206.588 7  88449459.46445  21600264.515
  21600252.6324         46.200          34.3004
 124403538.071 6  96937793.55744  23673204.685
  23673191.6304         40.300          25.5004
 128496262.972 6 100126891.63343  24452021.333
  24452009.8604         39.200          20.6004
 16  2 13  2 35  0.0000000  0 11G07G08G05G30G28G11G20G01G13G17G15
 112575507.770 7  87721198.20645  21422374.961
  21422362.6684         46.000          35.9004
 121863611.668 6  94958651.28144  23189855.700
  23189845.5174         39.500          25.1004
 131824738.695 5 102720528.32242  25085413.481
  25085405.0564         34.500          16.9004
 106499973.846 8  82987008.36547  20266252.385
  20266241.6754         51.100          42.2004
 109097429.161 7  85010948.20046  20760532.264
  20760518.2134         47.500          39.3004
 122301140.867 6  95299539.44843  23273131.004
  23273117.6564         40.000          20.6004
 129923046.696 5                  24723533.878
                        33.000
 131176548.373 5                  24962068.399
                        31.600
 113456522.713 7  88407627.90445  21590049.236
  21590036.8254         46.700          33.8004
 124298107.906 6  96855640.21044  23653140.909
  23653128.9684         40.300          24.3004
 128406646.626 6 100057060.77643  24434968.384
  24434956.7364         38.300          20.1004
 16  2 13  2 35 30.0000000  0 11G07G08G05G30G28G11G20G01G13G17G15
 112640732.214 7  87772022.45246  21434786.738
  21434774.2114         46.200          36.2004
 121941211.441 6  95019118.63244  23204622.828
  23204612.8794         39.300          25.5004
 131907388.185 5 102784930.41442  25101140.163
  25101132.7354         33.300          16.3004
 106518197.747 8  83001208.81547  20269719.830
  20269709.0034         50.900          42.0004
 109073917.367 7  84992627.34446  20756057.696
  20756043.8204         47.300          38.9004
 122246125.756 6  95256670.52943  23262661.453
  23262648.3394         40.900          22.2004
 129960303.604 5                  24730624.426
                        34.100
 131091113.458 5                  24945809.127
                        30.500
 113403370.098 7  88366210.30645  21579934.859
  21579922.3914         46.800          34.5004
 124192829.498 6  96773605.14743  23633108.593
  23633095.0114         41.300          22.9004
 128317330.965 5  99987464.21743  24417970.361
  24417960.6474         35.900          19.0004
 16  2 13  2 36  0.0000000  0 11G07G08G05G30G28G11G20G01G13G17G15
 112706281.276 7  87823099.64445  21447260.346
  21447247.5844         45.500          35.3004
 122019213.165 6  95079899.20643  23219465.647
  23219455.9334         39.700          23.6004
 131990180.279 5 102849443.75542  25116897.168
  25116887.5124         34.600          17.4004
 106536822.485 7  83015721.62346  20273264.341
  20273253.5724         47.200          41.9004
 109050756.193 7  84974579.70046  20751649.932
  20751636.9944         47.400          38.8004
 122191580.591 6  95214167.85843  23252283.029
  23252268.3334         40.300          21.7004
 129998019.255 5                  24737800.791
                        34.400
 131005842.390 5                  24929584.375
                        32.500
 113350761.828 7  88325216.89345  21569924.534
  21569911.4794         47.000          34.4004
 124087716.167 6  96691698.71144  23613105.282
  23613093.3994         41.700          26.0004
 128228329.689 5  99918112.66543  24401035.083
  24401024.5484         35.500          19.3004
 16  2 13  2 36 30.0000000  0 11G07G08G05G30G28G11G20G01G13G17G15
 112772149.894 7  87874425.84245  21459794.437
  21459781.8514         45.600          35.1004
 122097609.740 6  95140987.45843  23234383.655
  23234374.6444         39.300          23.8004
 132073107.936 5 102914062.64142  25132677.785
  25132667.4854         34.400          16.9004
 106555844.051 8  83030543.63547  20276883.961
  20276873.7194         51.300          42.2004
 109027941.178 7  84956801.77646  20747309.247
  20747295.4894         47.800          39.6004
 122137503.716 6  95172030.04343  23241992.513
  23241978.2284         40.000          22.3004
 130036193.426 5                  24745064.102
                        33.700
 130920734.210 5                  24913387.499
                        31.900
 113298695.526 7  88284645.77045  21560015.662
  21560003.5454         47.000          33.5004
 123982766.047 6  96609919.45244  23593133.250
  23593122.2464         40.900          26.8004
 128139640.867 6  99849004.59443  24384157.924
  24384147.8584         36.400          18.3004
 16  2 13  2 37  0.0000000  0 11G07G08G05G30G28G11G20G01G13G17G15
 112838340.568 7  87926002.99045  21472390.265
  21472377.6204         44.900          35.8004
 122176401.364 6  95202383.51544  23249377.946
  23249368.3494         40.100          25.6004
 132156170.780 5 102978786.86442  25148483.542
  25148473.7694         34.900          16.3004
 106575265.045 7  83045676.88647  20280579.718
  20280569.1844         47.300          42.5004
 109005474.092 7  84939294.98646  20743033.481
  20743020.2504         46.700          39.0004
 122083900.033 6  95130260.96643  23231790.663
  23231777.5494         39.500          21.7004
                                  24752412.207
                        31.200
 130835788.501 5                  24897221.528
                        30.800
 113247176.104 7  88244500.79945  21550212.679
  21550199.9764         46.300          34.5004
 123877984.169 7  96528271.25044  23573194.681
  23573182.9154         43.000          26.7004
 128051269.676 6  99780143.97343  24367341.739
  24367330.6774         37.000          19.3004
 16  2 13  2 37 30.0000000  0 11G07G08G05G30G28G11G20G01G13G17G15
 112904847.570 7  87977826.63345  21485046.556
  21485033.0324         45.800          35.2004
 122255580.800 6  95264081.76944  23264445.239
  23264435.2324         40.400          24.2004
 132239360.894 5 103043610.27542  25164313.864
  25164304.0914         34.900          15.6004
 106595080.988 8  83061117.89347  20284350.660
  20284339.8904         51.600          42.2004
 108983350.075 7  84922055.51146  20738824.065
  20738809.8974         47.500          39.0004
 122030767.579 6  95088859.08743  23221680.223
  23221667.2854         40.000          21.8004
 130113854.730 5                  24759844.600
                        32.900
 130751006.812 5                  24881089.606
                        31.200
 113196200.895 7  88204779.87745  21540512.014
  21540499.1934         46.400          34.6004
 123773368.364 7  96446752.47244  23553286.691
  23553274.9254         42.000          25.4004
 127963213.957 6  99711529.23042  24350586.598
  24350574.3644         37.800          17.4004
 16  2 13  2 38  0.0000000  0 11G07G08G05G30G28G11G20G01G13G17G15
 112971674.801 7  88029899.80945  21497763.460
  21497750.2884         46.600          35.0004
 122335149.558 6  95326083.41644  23279587.095
  23279576.9714         40.800          26.0004
 132322679.795 5 103108534.06242  25180168.294
  25180160.5724         34.800          17.4004
 106615296.205 8  83076870.02347  20288197.482
  20288186.7714         50.900          42.4004
 108961572.896 7  84905086.31046  20734679.226
  20734665.7614         46.600          38.7004
 121978112.772 6  95047829.38543  23211660.808
  23211647.1664         40.600          22.2004
 130153362.329 5                  24767363.639
                        33.800
 130666396.426 5                  24864987.120
                        30.800
 113145775.805 7  88165487.62745  21530916.602
  21530903.3714         46.900          34.7004
 123668925.301 7  96365368.31444  23533411.028
  23533400.4354         42.200          26.1004
 127875480.224 6  99643165.27043  24333890.091
  24333879.2644         38.800          18.3004
 16  2 13  2 38 30.0000000  0 11G07G08G05G30G28G11G20G01G13G17G15
 113038825.258 7  88082224.83945  21510541.556
  21510528.5014         45.800          35.5004
 122415108.686 6  95388389.22543  23294802.357
  23294792.3504         41.100          23.0004
 132406127.393 5 103173558.04842  25196047.981
  25196040.1434         34.300          17.4004
 106635914.386 8  83092936.14747  20292120.676
  20292110.0244         50.700          42.4004
 108940145.619 7  84888389.75346  20730601.521
  20730588.1144         47.000          38.6004
 121925942.057 6  95007176.90743  23201731.344
  23201719.0514         37.000          22.0004
 130193333.770 5                  24774967.332
                        34.000
                                  24848920.077
                        29.900
 113095906.791 7  88126628.67745  21521426.651
  21521413.6554         47.000          34.4004
 123564661.500 6  96284123.81144  23513569.937
  23513558.9924         41.400          25.0004
 127788074.682 6  99575057.10543  24317257.155
  24317246.3274         38.000          19.3004
 16  2 13  2 39  0.0000000  0 11G07G08G05G30G28G11G20G01G13G17G15
 113106283.377 7  88134789.60945  21523378.509
  21523365.2204         46.000          35.3004
 122495440.708 6  95450985.62543  23310089.112
  23310078.2844         41.000          22.3004
 132489686.050 5 103238668.64842  25211949.055
  25211940.3964         32.600          16.3004
 106656920.933 8  83109304.90346  20296118.430
  20296107.3094         51.300          41.8004
 108919052.983 7  84871953.94146  20726587.856
  20726574.2744         47.300          38.9004
 121874242.929 6  94966891.89743  23191894.437
  23191882.5544         40.100          22.6004
 130233714.219 5                  24782651.476
                        33.000
 130497701.117 5                  24832885.894
                        31.900
 113046580.581 7  88088192.69745  21512040.116
  21512026.9444         47.500          35.5004
 123460564.023 6  96203008.92744  23493761.719
  23493749.8954         41.600          26.5004
 127700984.722 6  99507194.88243  24300684.508
  24300673.2704         38.100          19.6004
 16  2 13  2 39 30.0000000  0 11G07G08G05G30G28G11G20G01G13G17G15
 113174063.893 7  88187605.59145  21536276.835
  21536263.7214         46.300          34.7004
 122576158.745 6  95513882.79443  23325449.970
  23325438.4984         40.600          23.8004
 132573368.299 5 103303875.48542  25227873.597
  25227864.7034         32.500          16.9004
 106678331.339 8  83125988.34446  20300192.743
  20300181.6814         51.000          41.9004
 108898309.480 7  84855790.20446  20722640.350
  20722626.8844         46.900          39.1004
 121823032.601 6  94926987.77843  23182148.534
  23182137.0034         37.600          22.6004
 130274544.918 5                  24790422.134
                        33.800
 130413620.096 5                  24816885.393
                        32.200
 112997814.843 7  88050193.44545  21502760.320
  21502747.4414         46.900          35.2004
 123356650.278 7  96122037.21444  23473987.557
  23473976.0264         42.200          26.8004
 127614228.279 6  99439592.54143  24284174.352
  24284163.8174         38.100          20.1004
 16  2 13  2 40  0.0000000  0 11G07G08G05G30G28G11G20G01G13G17G15
 113242160.615 7  88240667.97045  21549234.836
  21549222.3674         46.100          34.9004
 122657254.507 6  95577074.30443  23340881.036
  23340869.5634         40.200          21.7004
 132657165.358 5 103369171.85942  25243818.507
  25243810.7854         33.800          16.3004
 106700140.101 7  83142982.19747  20304342.454
  20304331.6264         47.300          42.1004
 108877909.083 7  84839893.81646  20718758.262
  20718744.8554         47.200          39.3004
 121772308.105 6  94887462.23743  23172496.404
  23172484.1114         39.800          22.2004
 130315811.932 5                  24798275.117
                        33.400
 130329721.579 5 101555582.11442  24800921.022
  24800911.7184         33.200          15.6004
 112949605.553 7  88012627.78045  21493586.383
  21493573.3864         47.500          34.7004
 123252917.591 7  96041206.60044  23454248.245
  23454236.4794         42.500          27.4004
 127527802.315 6  99372247.69743  24267728.224
  24267717.5144         37.400          21.1004
 16  2 13  2 40 30.0000000  0 11G07G08G05G30G28G11G20G01G13G17G15
 113310573.211 7  88293976.49145  21562251.825
  21562240.8224         45.700          34.8004
 122738725.635 6  95640558.32043  23356383.831
  23356373.4724         39.400          22.9004
 132741074.434 5 103434555.50242  25259787.438
  25259777.8414         32.000          15.6004
 106722347.633 8  83160286.77846  20308568.466
  20308557.9314         49.300          41.7004
 108857851.441 7  84824264.50846  20714941.647
  20714927.8304         46.600          39.5004
 121722072.281 6  94848317.44843  23162937.055
  23162924.3524         40.000          22.0004
 130357513.643 5                  24806209.602
                        31.200
 130246008.923 5 101490351.56542  24784990.279
  24784982.6174         33.400          13.9004
 112901954.975 7  87975497.48845  21484518.423
  21484505.9544         47.200          34.9004
 123149368.558 6  95960519.07544  23434542.643
  23434531.4054         41.800          27.1004
 127441709.272 6  99305162.27843  24251344.346
  24251334.2224         37.400          19.3004
 16  2 13  2 41  0.0000000  0 11G07G08G05G30G28G11G20G01G13G17G15
 113379301.340 7  88347530.87245  21575331.151
  21575318.8584         45.600          34.8004
 122820570.135 6  95704333.25943  23371957.810
  23371948.5074         39.700          22.3004
 132825093.049 5 103500024.46642  25275775.854
  25275766.0234         34.000          15.6004
 106744954.382 8  83177902.44147  20312870.330
  20312859.9124         50.300          42.4004
 108838136.586 7  84808902.30746  20711189.964
  20711176.2064         47.700          39.2004
 121672327.783 6  94809555.53543  23153471.775
  23153458.1344         40.800          22.8004
 130399648.133 5                  24814230.331
                        34.600
 130162485.716 5 101425268.58742  24769095.310
  24769089.3464         33.700          16.9004
 112854865.667 8  87938804.54745  21475556.802
  21475544.9204         48.100          34.8004
 123046005.967 7  95879976.84044  23414874.050
  23414862.5194         42.700          27.3004
 127355952.070 6  99238338.58943  24235026.181
  24235015.4124         37.700          19.3004
 16  2 13  2 41 30.0000000  0 11G07G08G05G30G28G11G20G01G13G17G15
 113448343.527 7  88401329.97445  21588470.686
  21588457.4554         45.000          34.6004
 122902784.287 6  95768396.22744  23387603.330
  23387593.2064         39.500          25.8004
 132909217.180 5 103565575.69942  25291783.305
  25291774.8214         33.300          15.6004
 106767959.650 8  83195828.64747  20317248.224
  20317236.9854         50.200          42.0004
 108818763.196 7  84793806.17446  20707503.417
  20707489.6004         46.600          38.9004
 121623076.273 6  94771177.76443  23144099.539
  23144086.1334         41.300          23.6004
 130442212.735 5                  24822327.771
                        32.200
 130079154.321 5 101360335.06542  24753237.417
  24753232.0404         31.900          15.6004
 112808338.495 7  87902549.63945  21466703.488
  21466691.0784         47.000          34.2004
 122942832.027 7  95799581.62044  23395240.946
  23395228.8884         43.200          26.7004
 127270532.306 6  99171777.82243  24218772.244
  24218759.8334         38.000          20.1004
 16  2 13  2 42  0.0000000  0 11G07G08G05G30G28G11G20G01G13G17G15
 113517699.752 7  88455373.78345  21601668.812
  21601655.6404         46.300          35.0004
 122985366.177 6  95832745.74444  23403318.124
  23403308.5864         40.300          24.6004
 132993444.768 5 103631207.49142  25307812.340
  25307802.9784         34.600          17.8004
 106791364.159 8  83214065.92846  20321701.711
  20321691.0604         50.600          41.7004
 108799731.188 7  84778976.05646  20703881.444
  20703868.2134         47.100          38.6004
 121574320.612 6  94733186.35043  23134821.588
  23134808.4154         40.300          22.9004
 130485205.579 5                  24830509.327
                        31.900
 129996018.270 5 101295553.80042  24737417.587
  24737412.5614         31.800          15.6004
 112762375.868 8  87866734.62445  21457957.540
  21457945.0124         48.000          35.4004
 122839849.080 7  95719335.19944  23375643.849
  23375631.2634         42.900          27.7004
 127185453.201 6  99105482.45943  24202581.606
  24202569.8994         38.500          20.9004
 16  2 13  2 42 30.0000000  0 11G07G08G05G30G28G11G20G01G13G17G15
 113587369.421 7  88509661.84545  21614926.001
  21614912.8884         46.600          34.9004
 123068313.439 6  95897379.98943  23419102.506
  23419093.0854         40.000          23.2004
 133077772.539 6 103696917.44742  25323859.322
  25323849.7834         36.300          16.9004
 106815168.072 8  83232614.44046  20326231.146
  20326220.9634         50.300          41.9004
 108781040.220 7  84764411.68746  20700324.437
  20700311.2654         46.800          38.6004
 121526063.050 6  94695583.08543  23125638.476
  23125625.0114         41.200          22.8004
 130528624.760 5                  24838771.419
                        31.900
 129913081.127 5 101230927.50142  24721636.194
  24721629.2344         34.600          15.6004
 112716979.875 7  87831361.14745  21449318.720
  21449306.4864         47.800          35.1004
 122737059.588 7  95639239.53044  23356083.267
  23356071.2674         42.300          27.3004
 127100717.484 6  99039454.68243  24186456.108
  24186445.2804         38.300          20.9004
 16  2 13  2 43  0.0000000  0 11G07G08G05G30G28G11G20G01G13G17G15
 113657355.842 7  88564196.72545  21628244.219
  21628231.1644         46.300          34.6004
 123151627.122 6  95962299.75644  23434956.876
  23434947.3964         40.000          24.9004
 133162201.028 6 103762705.78743  25339925.929
  25339915.4534         36.000          18.6004
 106839375.280 8  83251477.21846  20330837.579
  20330827.3374         50.200          41.9004
 108762693.509 7  84750115.56546  20696833.517
  20696820.2284         47.000          39.0004
 121478310.092 6  94658373.02343  23116551.731
  23116538.0314         41.300          23.0004
 130572471.622 5                  24847115.397
                        32.800
 129830349.687 5 101166461.56942  24705892.850
  24705885.1284         33.800          15.6004
 112672156.070 7  87796433.53745  21440789.096
  21440776.3344         47.600          34.8004
 122634469.990 6  95559299.63544  23336560.770
  23336549.3564         41.800          27.7004
 127016330.895 6  98973698.98043  24170398.624
  24170387.7964         38.200          19.6004
 16  2 13  2 43 30.0000000  0 12G07G08G05G30G28G11G20G01G13G17G15G19
 113727648.088 7  88618969.90445  21641620.198
  21641607.1434         46.200          34.7004
 123235294.305 6  96027494.96143  23450878.910
  23450869.0204         40.000          22.3004
 133246722.065 5 103828574.34642  25356008.800
  25355998.8514         35.300          15.6004
 106863975.602 8  83270646.31646  20335518.921
  20335508.6214         50.500          41.2004
 108744680.103 7  84736079.17346  20693405.397
  20693391.8744         47.500          38.8004
 121431053.422 7  94621549.67843  23107559.731
  23107545.2694         42.800          23.6004
 130616733.520 5                  24855538.963
                        32.500
 129747816.865 5 101102150.28242  24690188.261
  24690179.8364         34.300          16.3004
 112627896.058 7  87761945.24245  21432366.713
  21432353.8334         47.600          35.1004
 122532072.678 7  95479509.56744  23317075.613
  23317063.4374         42.700          26.4004
 126932285.681 6  98908209.25443  24154405.764
  24154393.7644         37.900          19.6004
 132662302.720 5                  25244796.339
                        34.400
 16  2 13  2 44  0.0000000  0 12G07G08G05G30G28G11G20G01G13G17G15G19
 113798258.738 7  88673991.18745  21655056.680
  21655043.6834         46.000          34.4004
 123319325.915 6  96092974.12043  23466869.961
  23466859.5444         40.600          23.8004
 133331331.639 5 103894509.72442  25372109.424
  25372100.2374         34.900          16.3004
 106888982.483 8  83290132.20347  20340277.625
  20340267.2664         50.300          42.0004
 108727012.886 7  84722312.52146  20690044.117
  20690029.9494         47.900          39.1004
 121384308.741 6  94585125.28043  23098663.420
  23098649.9554         41.200          22.8004
 130661421.809 5                  24864043.949
                        33.400
 129665499.130 5 101038006.61042  24674521.690
  24674515.3764         33.600          16.3004
 112584214.887 7  87727907.98745  21424054.367
  21424042.1334         47.700          35.3004
 122429883.254 6  95399881.49044  23297629.132
  23297617.1324         41.300          26.0004
 126848597.804 6  98842997.99043  24138479.488
  24138468.5434         36.800          19.9004
                                  25221080.064
                        33.700
 16  2 13  2 44 30.0000000  0 12G07G08G05G30G28G11G20G01G13G17G15G19
 113869173.407 7  88729249.37945  21668551.670
  21668538.5564         45.600          35.3004
 123403706.012 6  96158724.86444  23482926.195
  23482916.5404         40.200          25.1004
 133416027.546 5 103960506.55542  25388225.814
  25388218.6794         33.700          16.3004
 106914382.398 8  83309924.35947  20345111.145
  20345100.4354         50.100          42.3004
 108709677.770 7  84708804.66546  20686744.991
  20686731.5854         47.500          38.8004
 121338064.767 6  94549091.03644  23089863.512
  23089850.1644         39.800          24.5004
 130706520.820 5                  24872625.280
                        32.300
 129583386.154 5 100974022.47742  24658897.585
  24658889.8054         34.700          15.6004
 112541100.811 7  87694312.62445  21415850.479
  21415837.4824         47.700          35.3004
 122327890.393 6  95320406.58844  23278219.521
  23278208.1074         41.800          26.8004
 126765256.029 6  98778056.42843  24122620.517
  24122608.5174         38.600          20.4004
 132413017.922 5                  25197360.233
                        32.900
 16  2 13  2 45  0.0000000  0 11G07G08G30G28G11G20G01G13G17G15G19
 113940401.780 7  88784752.01245  21682105.954
  21682092.6064         45.800          33.9004
 123488441.732 6  96224752.68344  23499051.510
  23499041.3854         40.900          24.7004
 106940185.471 8  83330030.66047  20350021.253
  20350010.9534         50.100          42.3004
 108692684.146 7  84695562.89146  20683511.230
  20683497.5884         47.500          38.9004
 121292333.624 6  94513456.38544  23081161.850
  23081147.8574         41.600          24.7004
 130752038.445 5                  24881286.747
                        31.600
 129501491.182 5 100910208.30942  24643312.093
  24643305.1344         34.400          16.9004
 112498565.696 8  87661168.39845  21407756.518
  21407743.4634         48.600          35.6004
 122226107.080 7  95241094.93344  23258851.731
  23258839.3794         42.800          28.1004
 126682272.848 6  98713394.29643  24106830.145
  24106818.0284         39.200          20.9004
 132288355.460 5                  25173638.423
                        33.200
 16  2 13  2 45 30.0000000  0 11G07G08G30G28G11G20G01G13G17G15G19
 114011940.312 7  88840496.32245  21695719.225
  21695706.2294         45.900          34.6004
 123573527.415 6  96291053.20443  23515241.324
  23515232.1964         39.500          23.5004
 106966389.006 8  83350449.01147  20355007.497
  20354997.3724         50.300          42.0004
 108676028.776 7  84682584.69946  20680341.679
  20680328.3904         47.500          39.2004
 121247114.909 6  94478221.03943  23072556.146
  23072542.6224         41.300          23.8004
 130797969.643 5                  24890025.333
                        30.500
 129419814.503 5 100846564.18442  24627767.853
  24627762.8864         34.700          16.9004
 112456608.517 8  87628474.51445  21399772.044
  21399759.2244         48.700          35.6004
 122124532.369 7  95161945.86444  23239522.579
  23239510.9314         42.400          26.9004
 126599647.993 6  98649011.35943  24091106.609
  24091095.1954         39.100          20.6004
 132163678.603 5                  25149912.110
                        33.200
 16  2 13  2 46  0.0000000  0 11G07G08G30G28G11G20G01G13G17G15G19
 114083787.977 7  88896481.51745  21709391.768
  21709378.5964         45.800          34.8004
 123658960.868 6  96357624.70243  23531499.486
  23531489.4794         39.800          22.8004
 106992992.663 8  83371179.14646  20360070.215
  20360059.6224         50.500          41.6004
 108659710.594 7  84669869.25246  20677236.597
  20677222.6044         47.000          39.1004
 121202410.400 6  94443386.38644  23064049.314
  23064036.0834         40.900          24.7004
 130844311.212 5                  24898846.066
                        31.300
 129338359.036 5 100783092.38342  24612267.266
  24612261.1854         34.600          17.8004
 112415230.528 8  87596231.94245  21391897.906
  21391884.9104         48.300          35.5004
 122023168.545 7  95082961.12344  23220235.013
  23220221.7824         43.700          28.1004
 126517383.241 6  98584909.00443  24075452.848
  24075440.2624         40.500          21.5004
 132038989.373 5                  25126184.685
                        31.800
 16  2 13  2 46 30.0000000  0 11G07G08G30G28G11G20G01G13G17G15G19
 114155944.801 7  88952707.60945  21723121.862
  21723109.6284         45.000          33.8004
 123744739.899 6  96424465.49043  23547822.092
  23547812.9054         39.200          22.2004
 107019997.330 8  83392221.75546  20365209.008
  20365198.7074         50.000          41.2004
 108643730.069 8  84657416.91246  20674195.556
  20674181.7394         48.100          39.4004
 121158223.143 6  94408954.76643  23055640.652
  23055627.4804         41.400          22.5004
 130891062.227 5                  24907740.478
                        30.500
 129257128.629 6 100719796.04542  24596813.442
  24596804.8414         37.300          16.9004
 112374434.286 8  87564442.68246  21384134.747
  21384121.6924         48.900          36.1004
 121922018.574 7  95004143.03244  23200986.267
  23200973.7404         42.800          29.0004
 126435482.056 6  98521089.93143  24059866.706
  24059854.5304         39.400          20.1004
 131914291.123 5                  25102456.447
                        32.500
 16  2 13  2 47  0.0000000  0 11G07G08G30G28G11G20G01G13G17G15G19
 114228409.030 7  89009173.24845  21736911.751
  21736898.8724         46.000          34.2004
 123830860.768 6  96491572.65743  23564210.763
  23564200.8144         38.400          22.6004
 107047402.053 8  83413576.09446  20370423.849
  20370413.4904         50.800          41.8004
 108628085.615 7  84645226.45346  20671218.728
  20671204.8534         47.600          39.0004
 121114554.665 6  94374927.39443  23047331.836
  23047317.6674         41.900          22.6004
 130938219.244 5                  24916715.385
                        31.800
 129176125.551 6 100656676.82642  24581396.581
  24581389.3284         36.000          16.9004
 112334220.682 8  87533107.42645  21376481.995
  21376469.2924         48.200          35.6004
 121821084.392 7  94925493.09044  23181778.359
  23181765.8904         42.200          29.3004
 126353945.688 6  98457555.15643  24044351.633
  24044339.2234         40.000          20.9004
 131789585.464 5 102693134.33542  25078725.219
  25078712.9854         32.500          16.3004
 16  2 13  2 47 30.0000000  0 11G07G08G30G28G11G20G01G13G17G15G19
 114301180.202 7  89065878.05445  21750759.417
  21750746.4214         45.600          34.3004
 123917321.290 6  96558944.49943  23580663.087
  23580653.4904         37.900          22.3004
 107075206.992 8  83435242.29047  20375715.622
  20375704.2664         50.800          42.0004
 108612776.576 7  84633297.34346  20668304.835
  20668291.6634         47.300          38.5004
 121071407.081 6  94341305.94543  23039119.475
  23039106.2444         41.300          23.4004
 130985780.094 5                  24925764.620
                        32.300
 129095352.990 6 100593737.24342  24566025.474
  24566018.7484         37.100          17.4004
 112294591.306 8  87502227.41745  21368940.983
  21368928.0454         48.700          35.5004
 121720368.342 7  94847013.09744  23162612.971
  23162600.2684         42.300          28.5004
 126272776.697 6  98394306.63843  24028903.836
  24028893.9464         40.200          22.2004
 131664875.238 5 102595957.56342  25054993.826
  25054981.9434         32.500          16.3004
 16  2 13  2 48  0.0000000  0 11G07G08G30G28G11G20G01G13G17G15G19
 114374257.353 7  89122821.29845  21764666.168
  21764652.8204         45.600          33.8004
 124004118.265 6  96626578.52643  23597180.090
  23597170.3764         37.600          22.2004
 107103411.808 8  83457220.07747  20381082.457
  20381071.4544         50.300          42.5004
 108597801.934 7  84621628.81646  20665455.568
  20665441.8104         47.300          39.3004
 121028782.406 6  94308091.93443  23031009.400
  23030995.0564         39.900          22.9004
 131033742.061 5                  24934893.022
                        32.900
 129014813.925 6 100530979.59942  24550701.107
  24550692.3314         36.800          16.9004
 112255547.683 7  87471803.82645  21361510.663
  21361498.1944         47.900          35.2004
 121619872.619 6  94768704.79844  23143488.149
  23143476.3254         41.000          26.9004
 126191977.493 6  98331346.29343  24013530.114
  24013518.9354         40.000          22.8004
 131540162.684 5 102498779.02842  25031261.008
  25031249.0664         34.200          16.9004
 16  2 13  2 48 30.0000000  0 11G07G08G30G28G11G20G01G13G17G15G19
 114447640.743 7  89180003.15745  21778630.004
  21778617.3014         46.000          33.3004
 124091250.142 6  96694473.49643  23613761.020
  23613750.6034         38.900          21.7004
 107132017.566 8  83479510.28746  20386526.065
  20386515.2954         50.800          41.6004
 108583162.340 7  84610221.35346  20662669.547
  20662656.2574         47.600          39.0004
 120986683.007 6  94275287.22843  23022997.047
  23022984.0514         40.700          22.5004
 131082103.863 5                  24944093.105
                        30.700
 128934512.373 5 100468407.00842  24535421.121
  24535411.8174         35.100          17.4004
 112217092.356 8  87441838.65045  21354193.001
  21354180.3564         48.300          35.6004
 121519600.530 7  94690570.78244  23124408.185
  23124395.5404         42.100          27.3004
 126111551.036 6  98268676.39843  23998225.334
  23998213.1584         40.800          22.6004
 131415451.010 5 102401601.21742  25007530.124
  25007518.3004         34.800          13.9004
 16  2 13  2 49  0.0000000  0 11G07G08G30G28G11G20G01G13G17G15G19
 114521329.366 7  89237422.86045  21792652.653
  21792640.0084         45.200          32.5004
 124178714.073 6  96762627.20043  23630404.618
  23630394.3764         39.200          21.8004
 107161024.103 8  83502112.80146  20392045.466
  20392034.8144         50.100          41.5004
 108568857.022 7  84599074.37146  20659947.201
  20659933.6774         46.900          39.2004
 120945111.115 6  94242893.56943  23015086.864
  23015072.6954         41.300          22.6004
 131130862.316 5                  24953373.759
                        32.000
 128854451.375 5 100406021.83542  24520183.550
  24520176.7664         33.500          17.4004
 112179226.741 7  87412332.99445  21346987.019
  21346974.9614         47.600          35.2004
 121419553.866 7  94612612.40744  23105369.118
  23105357.2934         42.700          27.8004
 126031499.895 6  98206298.95743  23982991.996
  23982980.2304         39.300          22.3004
 131290743.048 5 102304426.24442  24983799.930
  24983786.9934         35.100          17.4004
 16  2 13  2 49 30.0000000  0 11G07G08G30G28G11G20G01G13G17G15G19
 114595322.003 7  89295079.46345  21806732.388
  21806720.1544         45.000          33.2004
 124266507.213 6  96831037.47243  23647112.029
  23647100.8494         39.000          22.2004
 107190431.318 8  83525027.52547  20397641.376
  20397630.5484         50.500          42.3004
 108554885.245 7  84588187.28646  20657288.601
  20657275.1364         46.900          39.1004
 120904069.099 6  94210912.80243  23007276.142
  23007263.0874         39.900          23.3004
 131180015.561 5                  24962728.832
                        33.800
 128774633.961 5 100343826.49342  24504995.081
  24504987.7114         32.800          16.9004
 112141952.745 8  87383288.34246  21339895.208
  21339881.6854         48.400          36.4004
 121319735.369 7  94534831.84045  23086374.513
  23086362.6304         42.800          30.0004
 125951825.982 6  98144215.44943  23967830.181
  23967818.3574         39.700          21.8004
 131166040.996 5 102207255.82942  24960068.736
  24960056.2674         34.600          17.8004
 16  2 13  2 50  0.0000000  0 11G07G08G30G28G11G20G01G13G17G15G19
 114669618.671 7  89352972.96145  21820870.410
  21820858.1764         45.300          33.4004
 124354627.094 6  96899702.29643  23663881.720
  23663870.3644         38.100          22.6004
 107220239.161 8  83548254.43546  20403313.815
  20403302.9294         50.600          41.5004
 108541246.252 7  84577559.52046  20654693.382
  20654679.5074         46.600          38.6004
 120863558.717 6  94179346.26443  22999567.664
  22999553.8474         41.100          22.8004
 131229561.600 5                  24972155.828
                        31.900
 128695063.288 5 100281823.47142  24489852.163
  24489846.5524         31.800          15.6004
 112105271.332 8  87354705.43146  21332915.175
  21332901.5934         48.800          36.4004
 121220147.453 7  94457230.94845  23067424.555
  23067411.9694         43.800          30.4004
 125872531.715 6  98082427.78043  23952741.303
  23952728.8344         39.200          21.7004
 131041347.498 6 102110092.16542  24936340.831
  24936328.1274         36.200          14.8004
 16  2 13  2 50 30.0000000  0 11G07G08G30G28G11G20G01G13G17G15G19
 114744218.172 7  89411102.42345  21835067.274
  21835053.9264         45.400          33.6004
 124443071.125 6  96968619.69643  23680710.791
  23680700.7254         37.900          20.4004
 107250447.282 8  83571793.23847  20409061.854
  20409051.3194         50.500          42.2004
 108527939.198 7  84567190.39846  20652160.716
  20652147.2514         46.500          38.6004
 120823581.751 6  94148195.42443  22991959.955
  22991946.5484         40.300          22.9004
 131279497.216 5                  24981658.094
                        33.200
 128615742.126 5 100220014.83042  24474759.304
  24474752.0524         33.000          16.9004
 112069183.698 8  87326585.21746  21326047.552
  21326034.2624         48.300          36.1004
 121120791.938 7  94379811.12544  23048516.816
  23048504.8744         43.400          29.4004
 125793619.080 6  98020937.45243  23937723.713
  23937711.7134         39.200          21.8004
 130916664.700 5 102012936.80842  24912613.746
  24912601.9814         34.200          17.8004
 16  2 13  2 51  0.0000000  0 11G07G08G30G28G11G20G01G13G17G15G19
 114819120.804 7  89469468.12145  21849320.033
  21849307.5054         45.000          32.9004
 124531837.298 6  97037788.14943  23697602.707
  23697592.3484         38.500          21.5004
 107281056.866 8  83595644.86846  20414886.760
  20414876.2254         50.600          41.7004
 108514964.626 7  84557080.35646  20649691.758
  20649678.5864         47.200          38.9004
 120784141.270 6  94117462.59343  22984455.050
  22984441.6434         40.700          22.3004
 131329821.133 5                  24991233.428
                        30.300
 128536674.953 5 100158404.12642  24459714.459
  24459705.6834         34.000          16.9004
 112033692.611 8  87298929.84145  21319293.223
  21319280.3444         48.800          35.8004
 121021672.287 7  94302575.10644  23029654.868
  23029642.8684         43.000          29.3004
 125715091.742 6  97959747.34943  23922780.505
  23922768.7984         38.100          22.3004
 130791996.520 5 101915792.83942  24888890.681
  24888877.8024         35.600          16.9004
 16  2 13  2 51 30.0000000  0 11G07G08G30G28G11G20G01G13G17G15G19
 114894324.883 7  89528068.70245  21863631.080
  21863618.4364         45.100          33.3004
 124620922.184 6  97107204.94243  23714553.975
  23714544.4954         38.700          21.5004
 107312066.935 8  83619808.56047  20420787.706
  20420777.2884         50.500          42.1004
 108502320.712 7  84547227.97846  20647286.165
  20647272.7584         47.000          38.8004
 120745238.402 6  94087148.70743  22977052.260
  22977038.7374         41.200          22.9004
 131380530.029 5                  25000884.792
                        34.000
 128457863.861 5 100096992.95042  24444716.140
  24444708.8294         34.400          15.6004
 111998798.949 8  87271739.99546  21312653.136
  21312640.4334         48.200          36.0004
 120922790.463 7  94225524.40344  23010838.310
  23010826.3684         43.100          29.7004
 125636951.007 6  97898858.54643  23907911.751
  23907898.9314         38.100          22.2004
 130667344.664 5 101818661.56942  24865169.897
  24865157.3694         35.600          15.6004
 16  2 13  2 52  0.0000000  0 11G07G08G30G28G11G20G01G13G17G15G19
 114969829.253 7  89586903.26345  21877998.825
  21877986.6504         44.600          33.3004
 124710323.107 6  97176867.97343  23731567.264
  23731557.1394         36.900          20.4004
 107343477.346 8  83644284.21947  20426765.266
  20426754.5564         50.200          42.0004
 108490007.047 7  84537632.92446  20644942.850
  20644929.1504         46.800          38.5004
 120706874.950 6  94057255.12043  22969751.521
  22969738.6424         41.300          23.9004
 131431621.457 5                  25010607.712
                        31.300
 128379311.763 5 100035783.56643  24429769.326
  24429760.6084         35.200          18.3004
 111964504.106 8  87245016.76545  21306127.500
  21306114.6214         48.800          35.4004
 120824148.310 7  94148660.46244  22992066.749
  22992055.4524         42.900          29.3004
 125559199.451 6  97838272.99643  23893115.114
  23893103.4074         38.700          22.8004
 130542711.410 5 101721544.79542  24841453.487
  24841440.4914         35.800          15.6004
 16  2 13  2 52 30.0000000  0 11G07G08G30G28G11G20G01G13G17G15G19
 115045634.730 7  89645972.46345  21892424.211
  21892411.6254         45.100          32.0004
 124800038.829 6  97246776.35343  23748638.947
  23748629.2914         36.800          21.7004
 107375289.336 8  83669072.79147  20432819.089
  20432808.0854         49.700          42.4004
 108478024.492 7  84528295.87646  20642662.479
  20642648.4864         46.800          38.7004
 120669053.995 6  94027784.27643  22962555.011
  22962541.7214         41.300          22.9004
 131483083.332 5                  25020400.738
                        32.200
 128301023.222 5  99974779.52043  24414871.711
  24414862.5244         35.200          19.0004
 111930810.759 8  87218762.22346  21299715.726
  21299703.0234         48.600          36.0004
 120725749.565 7  94071986.17544  22973341.990
  22973330.5764         43.000          29.7004
 125481840.457 6  97777993.28843  23878394.630
  23878382.2784         38.800          22.6004
 130418100.724 5 101624445.65442  24817739.240
  24817727.0644         35.200          13.9004
 16  2 13  2 53  0.0000000  0 11G07G08G30G28G11G20G01G13G17G15G19
 115121743.911 7  89705278.31545  21906907.700
  21906895.0554         45.400          32.7004
 124890070.223 6  97316930.65143  23765770.791
  23765761.6634         36.000          20.4004
 107407506.275 8  83694176.91346  20438949.749
  20438938.6864         50.200          41.6004
 108466375.500 7  84519218.77246  20640445.621
  20640431.8634         46.700          38.3004
 120631781.359 6  93998740.67543  22955462.550
  22955448.8504         41.600          23.8004
                                  25030267.915
                        31.200
 128223004.736 5  99913985.97443  24400023.944
  24400015.0504         35.500          18.6004
 111897723.629 8  87192980.06346  21293419.560
  21293406.7404         48.800          36.6004
 120627599.898 7  93995505.97544  22954665.205
  22954653.1464         43.600          29.8004
 125404879.866 6  97718024.02543  23863748.304
  23863736.8314         39.200          22.6004
 130293518.899 5 101527368.97042  24794031.990
  24794019.6384         33.700          16.3004
 16  2 13  2 53 30.0000000  0 11G07G08G30G28G11G20G01G13G17G15G19
 115198141.370 7  89764808.81645  21921445.739
  21921432.9184         45.800          33.0004
 124980399.664 5  97387317.23543  23782961.031
  23782951.1994         35.800          21.1004
 107440113.559 8  83719585.19947  20445154.618
  20445143.6154         50.500          42.2004
 108455044.880 7  84510389.72846  20638289.446
  20638275.6294         46.500          38.8004
 120595044.348 6  93970114.47443  22948471.239
  22948457.7154         41.700          23.3004
 131587172.685 5                  25040206.731
                        32.500
 128145244.977 5  99853394.05343  24385226.216
  24385218.0254         35.500          18.6004
 111865229.808 8  87167660.21846  21287236.204
  21287222.7974         48.400          36.1004
 120529687.311 7  93919210.50944  22936032.917
  22936020.6244         43.900          29.2004
 125328305.143 6  97658355.47643  23849177.628
  23849165.4524         39.300          22.3004
 130168953.866 5 101430305.36242  24770330.352
  24770315.4214         35.200          17.4004
 16  2 13  2 54  0.0000000  0 11G07G08G30G28G11G20G01G13G17G15G19
 115274843.218 7  89824576.47645  21936041.509
  21936028.7474         45.500          32.4004
 125071041.816 6  97457947.46943  23800209.208
  23800200.1394         37.100          21.5004
 107473128.032 8  83745310.76846  20451437.145
  20451426.2004         50.000          41.3004
 108444048.871 7  84501821.42846  20636197.605
  20636183.7304         47.200          39.0004
 120558861.538 6  93941920.09243  22941585.460
  22941572.2294         41.500          23.2004
                                  25050215.091
                        32.500
 128067763.905 5  99793019.24943  24370481.881
  24370473.8664         34.800          18.3004
 111833347.419 8  87142816.81046  21281169.310
  21281156.0214         48.600          36.0004
 120432031.199 7  93843114.87844  22917449.183
  22917436.9484         43.800          29.9004
 125252135.989 6  97599002.95043  23834683.382
  23834670.7964         39.000          22.5004
 130044425.289 6 101333270.14842  24746633.258
  24746618.6214         36.500          16.9004
 16  2 13  2 54 30.0000000  0 11G07G08G30G28G11G20G01G13G17G15G19
 115351838.769 7  89884573.01045  21950692.705
  21950680.1194         44.900          32.7004
 125161983.755 6  97528811.28643  23817514.566
  23817505.9074         36.600          20.9004
 107506539.563 8  83771345.73646  20457794.734
  20457784.0824         50.200          41.7004
 108433376.718 7  84493505.47646  20634166.605
  20634152.7884         47.600          38.8004
 120523224.933 6  93914151.32243  22934804.696
  22934790.2344         41.000          22.2004
 131692739.120 5                  25060295.938
                        30.300
 127990554.551 6  99732856.20943  24355790.107
  24355781.3314         36.100          19.0004
 111802067.753 8  87118443.06346  21275216.410
  21275203.7074         48.100          36.5004
 120334623.598 7  93767212.90344  22898914.413
  22898901.3584         43.700          29.9004
 125176364.223 6  97539960.07043  23820264.828
  23820251.4804         39.600          22.6004
 129919925.264 5 101236257.21542  24722940.278
  24722927.5754         35.900          17.4004
 16  2 13  2 55  0.0000000  0 11G07G08G30G28G11G20G01G13G17G15G19
 115429131.976 7  89944801.47845  21965401.360
  21965388.9504         44.700          32.0004
 125253227.992 6  97599910.72943  23834878.550
  23834868.6014         36.900          21.5004
 107540352.774 8  83797693.69547  20464229.006
  20464218.7064         49.800          42.1004
 108423032.717 7  84485445.22346  20632197.523
  20632184.3514         46.400          39.2004
 120488140.753 7  93886813.02244  22928128.321
  22928114.0944         42.300          24.6004
 131746075.918 5                  25070445.741
                        32.800
 127913624.797 6  99672911.02343  24341150.037
  24341142.4914         36.300          19.0004
 111771396.898 7  87094543.71045  21269379.766
  21269367.1214         47.900          35.9004
 120237471.392 7  93691509.92745  22880425.883
  22880413.7074         43.400          31.0004
 125100996.933 6  97481232.36443  23805923.848
  23805910.2074         40.600          22.6004
 129795461.478 5 101139272.48542  24699255.399
  24699241.9344         35.900          17.8004
 16  2 13  2 55 30.0000000  0 11G07G08G30G28G11G20G01G13G17G15G19
 115506722.969 7  90005261.98345  21980166.351
  21980153.9994         43.700          31.9004
 125344772.823 6  97671244.34143  23852298.714
  23852288.8244         37.900          20.4004
 107574568.742 8  83824355.50346  20470740.087
  20470729.5524         50.400          41.8004
 108413017.280 7  84477641.00046  20630291.549
  20630278.0254         47.000          39.0004
 120453612.359 6  93859907.79143  22921558.282
  22921543.4694         41.900          22.9004
 131799780.681 5                  25080664.661
                        31.200
 127836978.940 6  99613187.04143  24326565.777
  24326556.7664         36.200          19.0004
 111741337.535 7  87071120.85146  21263659.759
  21263646.9974         47.600          36.0004
 120140578.354 7  93616008.91544  22861987.199
  22861975.5514         43.000          29.6004
 125026037.753 6  97422822.66544  23791658.444
  23791645.4474         40.800          24.4004
 129671037.822 6 101042319.06943  24675579.575
  24675565.3484         36.500          18.3004
 16  2 13  2 56  0.0000000  0 10G07G08G30G28G11G01G13G17G15G19
 115584606.439 7  90065950.39145  21994987.564
  21994974.6854         44.700          31.6004
 125436611.128 6  97742806.67143  23869774.967
  23869764.7254         37.500          20.1004
 107609182.902 8  83851327.58346  20477327.196
  20477316.4854         49.600          41.9004
 108403325.273 7  84470088.81646  20628447.459
  20628433.5834         47.800          39.2004
 120419636.890 6  93833433.41843  22915092.726
  22915078.5584         41.800          23.8004
 127760615.654 6  99553683.26943  24312033.610
  24312025.4784         36.600          20.1004
 111711886.424 8  87048171.95945  21258056.106
  21258042.4064         48.700          35.9004
 120043942.133 7  93540708.02345  22843598.112
  22843586.2304         42.900          31.0004
 124951484.414 6  97364729.19243  23777470.471
  23777458.5884         39.400          22.5004
 129546652.109 6 100945395.22443  24651908.143
  24651895.7324         36.600          18.6004
 16  2 13  2 56 30.0000000  0 10G07G08G30G28G11G01G13G17G15G19
 115662784.613 7  90126868.44545  22009864.828
  22009851.5974         45.100          31.4004
 125528742.999 6  97814597.73543  23887306.690
  23887296.7424         36.100          20.1004
 107644198.038 8  83878612.10347  20483990.133
  20483979.8334         49.800          42.2004
 108393959.063 7  84462790.48246  20626665.821
  20626651.7704         46.500          39.2004
 120386219.268 6  93807393.72643  22908732.643
  22908718.8264         41.500          22.9004
 127684540.793 6  99494404.25043  24297557.302
  24297549.3464         36.900          18.6004
 111683047.684 7  87025700.23046  21252568.185
  21252554.8964         47.500          36.3004
 119947568.299 7  93465611.58445  22825258.697
  22825246.8154         42.300          30.1004
 124877342.355 6  97306956.24143  23763360.720
  23763349.3064         37.900          21.7004
 129422310.108 6 100848505.39542  24628246.808
  24628233.5774         36.600          16.9004
 16  2 13  2 57  0.0000000  0 10G07G08G30G28G11G01G13G17G15G19
 115741256.819 7  90188015.61245  22024797.057
  22024784.1194         44.500          31.9004
 125621165.785 6  97886615.49643  23904893.841
  23904884.5964         37.300          20.6004
 107679613.972 8  83906208.94247  20490730.140
  20490719.0774         49.600          42.0004
 108384917.768 7  84455745.33446  20624945.359
  20624931.1904         46.700          39.2004
 120353361.056 7  93781789.94644  22902481.030
  22902466.6854         42.000          24.7004
 127608757.477 6  99435352.36643  24283136.341
  24283127.8584         36.600          19.0004
 111654822.775 7  87003706.81045  21247196.729
  21247183.7924         47.900          35.6004
 119851459.787 7  93390721.88645  22806971.137
  22806957.8474         43.700          31.4004
 124803613.177 6  97249505.00043  23749331.514
  23749318.8704         38.900          22.0004
 129298014.465 5 100751651.77643  24604593.312
  24604581.4884         35.700          18.3004
 16  2 13  2 57 30.0000000  0 10G07G08G30G28G11G01G13G17G15G19
 115820021.139 7  90249390.41045  22039785.673
  22039772.6764         44.700          32.4004
 125713876.033 6  97958857.24043  23922535.500
  23922526.8994         37.200          20.1004
 107715429.916 8  83934117.48246  20497545.913
  20497534.7344         49.900          41.5004
 108376200.270 7  84448952.48946  20623286.303
  20623272.3104         46.800          39.0004
 120321063.495 6  93756623.02444  22896334.536
