     2.11           OBSERVATION DATA    G (GPS)             RINEX VERSION / TYPE
teqc  2016Nov7      root                20180417 15:40:30UTCPGM / RUN BY / DATE
Linux 2.4.21-27.ELsmp|Opteron|gcc|Linux x86_64|=+           COMMENT
     2.11           OBSERVATION DATA    G (GPS)             COMMENT
teqc  2015Nov6      NOAA/NOS/NGS/CORS   20160214 10:28:45UTCCOMMENT
Solaris x86 5.10|AMD64|cc SC5.8 -xarch=amd64|=+|=+          COMMENT
teqc  2015Nov6      NOAA/NOS/NGS/CORS   20160214 10:28:33UTCCOMMENT
teqc  2015Nov6      UNAVCO Archive Ops  20160214 00:42:45UTCCOMMENT
BIT 2 OF LLI FLAGS DATA COLLECTED UNDER A/S CONDITION       COMMENT
input file: shld201602130000a.tgd                           COMMENT
RINEX file created by UNAVCO GPS Archive.                   COMMENT
For more information contact archive@unavco.org             COMMENT
Monument ID: 18021                                          COMMENT
UNAVCO 4-char name:   SHLD                                  COMMENT
4-char name from Log or data file: SHLD                     COMMENT
Monument location: 41.868367 -119.015684 1457.5576          COMMENT
Visit ID: 112365                                            COMMENT
                                                            COMMENT
SHLD_PNGA_NV1999                                            COMMENT
                                                            COMMENT
End of DB comments                                          COMMENT
 SNR is mapped to RINEX snr flag value [0-9]                COMMENT
  L1 & L2: min(max(int(snr_dBHz/6), 0), 9)                  COMMENT
teqc edited: all SBAS satellites excluded                   COMMENT
teqc edited: all Compass satellites excluded                COMMENT
teqc edited: all QZSS satellites excluded                   COMMENT
Forced Modulo Decimation to 30 seconds                      COMMENT
SHLD                                                        MARKER NAME
49771M001                                                   MARKER NUMBER
Miner, Andy         Central Washington University           OBSERVER / AGENCY
4420234001          TRIMBLE NETRS       1.3-0               REC # / TYPE / VERS
0220138195          TRM29659.00     UNAV                    ANT # / TYPE
 -2307792.2310 -4160683.4330  4235700.0980                  APPROX POSITION XYZ
        0.0083        0.0000        0.0000                  ANTENNA: DELTA H/E/N
     1     1                                                WAVELENGTH FACT L1/2
     8    L1    L2    C1    C2    P1    P2    S1    S2      # / TYPES OF OBSERV
    30.0000                                                 INTERVAL
teqc.w windowed: start @ 2016 Feb 13 00:00:00.000           COMMENT
teqc.w windowed:  end  @ 2016 Feb 13 05:00:00.000           COMMENT
teqc.w edited: all GLONASS satellites excluded              COMMENT
  2016     2    13     2     8   30.0000000     GPS         TIME OF FIRST OBS
                                                            END OF HEADER
 16  2 13  2  8 30.0000000  0 11G05G01G07G09G11G27G28G30G08G13G17
  -3574437.207 6  -2097808.45143  24491816.617
  24491805.027          36.300          20.600
   -815960.79715   -535798.28153  25337235.930
  25337229.672          34.000          18.600
 -27296531.158 7 -20578005.60946  20707015.359
  20707003.242          47.600          39.800
 -13390630.599 6  -9659875.44844  23501044.227
  23501036.152          39.000          24.200
 -10429258.823 6  -5576778.28443  23531159.766
  23531147.355          38.900          20.600
 -28560657.101 6 -23634354.09442  25019502.406
  25019492.574          37.700          17.400
 -19892513.384 7 -14455834.21246  21081187.563
  21081175.270          47.700          38.000
 -27006272.575 8 -20183361.74547  20303390.789
  20303381.133          50.800          43.300
 -12776451.842 6  -9291763.39844  22666066.750
  22666058.090          41.100          29.000
 -15549538.991 6 -10084998.43744  22780095.180
  22780083.707          41.100          26.200
  -7210432.180 6  -7437280.52043  24143915.734
  24143905.551          38.400          22.500
 16  2 13  2  9  0.0000000  0 11G05G01G07G09G11G27G28G30G08G13G17
  -3513963.133 5  -2050685.84143  24503322.992
  24503313.453          35.900          20.400
   -898543.303 5   -600148.20443  25321521.430
  25321514.176          35.700          21.100
 -27261887.447 7 -20551010.50246  20713607.633
  20713596.102          47.500          40.500
 -13279935.998 6  -9573619.95643  23522108.352
  23522100.688          38.800          22.900
 -10494234.755 6  -5627408.79743  23518795.742
  23518783.098          38.400          21.100
 -28459835.853 6 -23555792.11142  25038688.078
  25038678.363          36.900          17.400
 -19925721.879 7 -14481710.94246  21074868.055
  21074855.762          47.300          38.300
 -27019192.536 8 -20193429.23647  20300932.234
  20300922.813          50.400          44.100
 -12712258.556 6  -9241742.65444  22678282.445
  22678273.785          41.600          29.400
 -15636469.635 6 -10152736.54044  22763552.813
  22763541.633          40.500          25.800
  -7318464.143 6  -7521461.17843  24123356.508
  24123347.145          39.200          22.600
 16  2 13  2  9 30.0000000  0 11G05G01G07G09G11G27G28G30G08G13G17
  -3453183.185 6  -2003324.86043  24514888.492
  24514879.363          36.300          20.100
   -981085.65415   -664466.89253  25305812.914
  25305807.066          30.800          18.600
 -27226909.311 7 -20523754.79846  20720263.898
  20720252.250          47.900          40.000
 -13169087.847 6  -9487244.79244  23543201.898
  23543193.941          38.500          24.500
 -10558848.626 6  -5677757.21643  23506499.453
  23506487.805          37.400          20.600
 -28358786.934 5 -23477052.69342  25057917.344
  25057907.336          35.800          17.800
 -19958595.373 7 -14507326.62246  21068612.281
  21068600.223          46.900          38.300
 -27031786.198 8 -20203242.46547  20298536.039
  20298525.738          50.700          43.700
 -12647597.990 6  -9191357.79744  22690587.008
  22690578.230          41.800          29.500
 -15723041.043 6 -10220194.74044  22747078.953
  22747067.715          41.300          27.100
  -7426404.934 6  -7605570.83043  24102817.516
  24102806.746          40.200          22.800
 16  2 13  2 10  0.0000000  0 10G05G07G09G11G27G28G30G08G13G17
  -3392100.245 6  -1955727.75543  24526513.008
  24526503.117          36.600          21.300
 -27191596.377 8 -20496238.21646  20726983.273
  20726971.684          48.000          39.800
 -13058088.661 6  -9400751.91044  23564324.742
  23564316.375          38.400          24.600
 -10623097.337 6  -5727821.09343  23494273.172
  23494261.582          37.900          21.100
 -28257513.245 5 -23398138.13642  25077188.531
  25077179.402          34.800          16.300
 -19991134.506 8 -14532681.76546  21062420.391
  21062408.391          48.000          38.400
 -27044052.844 8 -20212800.87147  20296201.531
  20296191.992          50.200          43.200
 -12582472.374 6  -9140610.54645  22702980.328
  22702971.668          41.700          31.000
 -15809250.493 6 -10287370.92244  22730673.516
  22730661.809          41.400          26.700
  -7534252.428 6  -7689607.74943  24082294.234
  24082284.109          39.500          22.500
 16  2 13  2 10 30.0000000  0 10G05G07G09G11G27G28G30G08G13G17
  -3330725.763 6  -1907903.51143  24538192.148
  24538182.609          37.200          20.400
 -27155957.626 7 -20468467.74946  20733764.961
  20733753.313          46.600          40.100
 -12946950.007 6  -9314150.36544  23585474.078
  23585465.887          39.200          24.600
 -10686986.952 6  -5777605.12943  23482114.594
  23482103.531          39.200          21.100
 -28156026.472 5 -23319057.52242  25096499.961
  25096491.594          34.000          17.400
 -20023349.087 7 -14557784.01046  21056289.727
  21056277.727          47.300          38.000
 -27056000.558 8 -20222110.76447  20293927.461
  20293918.566          50.400          43.700
 -12516892.901 7  -9089509.66144  22715460.047
  22715450.742          42.600          29.300
 -15895104.288 6 -10354269.93044  22714336.602
  22714325.070          40.900          26.000
  -7642013.181 6  -7773577.08343  24061789.172
  24061777.816          39.800          22.200
 16  2 13  2 11  0.0000000  0 10G05G07G09G11G27G28G30G08G13G17
  -3269059.412 5  -1859851.83743  24549927.094
  24549917.320          35.900          19.600
 -27119989.028 7 -20440440.25446  20740609.977
  20740598.328          47.300          40.100
 -12835670.659 6  -9227439.19044  23606649.805
  23606641.438          38.100          24.900
 -10750510.959 6  -5827104.29743  23470027.859
  23470015.801          38.100          22.800
 -28054325.653 5 -23239810.11442  25115853.320
  25115844.777          33.400          16.900
 -20055235.295 7 -14582630.38046  21050221.906
  21050209.906          47.200          38.200
 -27067624.931 8 -20231168.70247  20291715.703
  20291706.574          51.000          43.600
 -12450857.953 6  -9038053.85045  22728025.070
  22728016.703          41.100          30.400
 -15980595.797 6 -10420886.63344  22698068.227
  22698056.520          41.600          27.900
  -7749680.239 6  -7857473.39343  24041300.414
  24041289.527          39.800          22.900
 16  2 13  2 11 30.0000000  0 10G05G07G09G11G27G28G30G08G13G17
  -3207102.735 5  -1811573.91943  24561715.805
  24561707.438          33.800          19.900
 -27083689.015 7 -20412154.51546  20747517.852
  20747505.793          47.100          40.100
 -12724251.954 6  -9140619.43244  23627852.523
  23627843.512          38.700          25.800
 -10813665.215 6  -5876315.33843  23458008.320
  23457997.492          38.500          21.800
 -27952412.391 5 -23160397.15742  25135246.453
  25135238.555          32.800          15.600
 -20086792.711 7 -14607220.55346  21044217.164
  21044205.047          47.800          38.400
 -27078923.864 8 -20239973.04947  20289565.625
  20289556.027          50.500          44.000
 -12384368.781 7  -8986244.10045  22740678.086
  22740669.074          42.000          30.000
 -16065721.300 7 -10487218.17044  22681869.531
  22681857.297          42.000          25.500
  -7857250.549 6  -7941294.32643  24020829.508
  24020819.969          38.600          22.000
 16  2 13  2 12  0.0000000  0 10G05G07G09G11G27G28G30G08G13G17
  -3144859.507 6  -1763072.74043  24573562.125
  24573552.527          37.100          20.600
 -27047058.388 7 -20383611.16446  20754488.477
  20754476.594          47.200          40.200
 -12612697.357 6  -9053693.79844  23649080.102
  23649071.969          38.400          25.400
 -10876447.994 6  -5925236.93143  23446061.516
  23446050.336          37.200          21.500
 -27850290.335 5 -23080821.56042  25154679.211
  25154671.957          33.400          16.300
 -20118022.804 7 -14631555.66046  21038274.469
  21038262.117          47.900          38.300
 -27089897.538 8 -20248523.95247  20287477.492
  20287467.836          50.600          43.300
 -12317428.734 6  -8934083.02345  22753416.648
  22753407.578          41.900          30.400
 -16150478.986 6 -10553263.06844  22665738.797
  22665728.848          40.900          26.500
  -7964722.588 6  -8025038.66143  24000377.828
  24000368.641          38.100          22.200
 16  2 13  2 12 30.0000000  0 10G05G07G09G11G27G28G30G08G13G17
  -3082332.133 5  -1714350.09843  24585460.461
  24585450.219          35.100          19.300
 -27010096.662 7 -20354809.80746  20761521.680
  20761509.914          47.500          39.800
 -12501009.172 6  -8966664.09244  23670334.398
  23670325.797          38.900          26.400
 -10938856.315 6  -5973866.68643  23434185.477
  23434174.531          37.600          21.800
 -27747962.036 5 -23001085.19942  25174152.844
  25174144.184          33.200          15.600
 -20148925.926 7 -14655635.99246  21032394.242
  21032381.656          47.500          38.500
 -27100544.856 8 -20256820.54447  20285451.359
  20285441.938          51.000          43.800
 -12250039.725 6  -8881572.11245  22766240.016
  22766231.414          41.300          30.000
 -16234865.750 7 -10619018.94344  22649681.625
  22649670.270          42.200          27.100
  -8072093.317 6  -8108704.08743  23979946.164
  23979935.922          38.400          22.500
 16  2 13  2 13  0.0000000  0 11G05G01G07G09G11G27G28G30G08G13G17
  -3019527.689 6  -1665411.62143  24597411.375
  24597402.012          36.400          20.100
   -309987.155 5   -443060.61843  25196099.406
  25196093.324          32.400          19.600
 -26972808.007 7 -20325753.70846  20768617.531
  20768605.531          46.900          39.900
 -12389194.140 6  -8879535.49644  23691611.578
  23691603.563          39.600          24.100
 -11000891.414 6  -6022205.68743  23422381.305
  23422369.539          38.400          21.500
 -27645434.292 5 -22921193.44442  25193662.523
  25193654.332          32.900          15.600
 -20179506.799 7 -14679465.21946  21026574.172
  21026561.938          47.600          38.300
 -27110869.234 8 -20264865.49147  20283486.461
  20283477.215          51.000          43.700
 -12182208.179 6  -8828716.35944  22779147.445
  22779138.961          41.100          29.200
 -16318883.190 7 -10684487.03944  22633693.680
  22633682.383          42.200          26.400
  -8179364.374 6  -8192291.81843  23959533.406
  23959522.930          39.800          22.800
 16  2 13  2 13 30.0000000  0 11G05G01G07G09G11G27G28G30G08G13G17
  -2956439.847 6  -1616252.33143  24609416.977
  24609406.910          36.500          20.400
   -392136.981 5   -507073.36543  25180466.375
  25180460.469          33.300          19.300
 -26935182.681 7 -20296435.25546  20775777.523
  20775765.582          47.200          40.100
 -12277245.357 6  -8792302.67744  23712915.563
  23712906.316          38.600          25.300
 -11062540.889 6  -6070244.18643  23410649.625
  23410637.918          38.600          22.500
 -27542700.656 5 -22841141.23642  25213211.578
  25213203.738          32.400          15.600
 -20209756.641 7 -14703036.49446  21020818.109
  21020805.523          47.600          39.300
 -27120860.572 8 -20272650.93247  20281585.125
  20281575.879          49.800          43.100
 -12113927.273 6  -8775510.45844  22792141.648
  22792132.520          40.800          29.600
 -16402519.400 6 -10749658.04944  22617778.750
  22617767.043          41.500          27.800
  -8286523.951 6  -8275792.69143  23939141.102
  23939131.445          39.200          23.300
 16  2 13  2 14  0.0000000  0 11G05G01G07G09G11G27G28G30G08G13G17
  -2893075.951 6  -1566877.87343  24621475.258
  24621464.664          37.100          19.600
   -474223.814 5   -571037.14143  25164844.063
  25164839.918          31.300          19.000
 -26897225.344 7 -20266858.10546  20783000.734
  20782988.500          47.400          39.900
 -12165170.149 6  -8704971.36843  23734243.102
  23734233.328          38.600          21.800
 -11123806.661 6  -6117983.68043  23398990.961
  23398979.547          38.900          22.300
 -27439768.448 5 -22760934.37142  25232799.344
  25232792.148          30.700          14.800
 -20239680.656 7 -14726353.88846  21015123.609
  21015111.258          47.500          38.600
 -27130522.724 8 -20280179.87647  20279746.406
  20279737.160          50.600          43.700
 -12045204.287 6  -8721960.08344  22805218.656
  22805210.055          40.900          29.100
 -16485776.200 7 -10814533.44944  22601934.266
  22601924.023          42.400          27.900
  -8393574.930 6  -8359209.01444  23918769.852
  23918760.137          38.300          25.000
 16  2 13  2 14 30.0000000  0 11G05G01G07G09G11G27G28G30G08G13G17
  -2829433.448 5  -1517286.35143  24633584.469
  24633576.043          35.500          21.100
   -556239.048 5   -634944.94742  25149238.383
  25149232.242          34.500          17.800
 -26858930.290 7 -20237017.80246  20790288.148
  20790275.973          46.800          39.700
 -12052965.357 6  -8617539.05043  23755594.539
  23755585.645          37.900          22.500
 -11184680.783 6  -6165418.01744  23387407.617
  23387395.324          39.200          24.000
 -28912055.04514                  25252422.719
                        29.400
 -20269273.828 7 -14749413.47846  21009492.063
  21009479.652          47.700          38.800
 -27139849.269 8 -20287447.30347  20277971.945
  20277962.113          50.100          43.800
 -11976035.405 6  -8668062.24344  22818381.125
  22818371.703          40.800          28.000
 -16568645.382 7 -10879106.79844  22586164.969
  22586153.906          42.500          28.300
  -8500508.465 6  -8442533.69644  23898422.383
  23898411.203          40.100          25.100
 16  2 13  2 15  0.0000000  0 10G05G01G07G09G11G28G30G08G13G17
  -2765527.121 6  -1467489.22743  24645746.141
  24645736.719          37.600          20.900
   -638191.566 5   -698804.04242  25133643.086
  25133637.180          34.600          17.800
 -26820309.057 7 -20206923.31946  20797637.109
  20797625.344          47.200          39.200
 -11940645.487 6  -8530017.08743  23776967.539
  23776959.289          38.800          22.200
 -11245171.986 6  -6212553.96244  23375896.406
  23375884.348          38.700          24.600
 -20298548.628 7 -14772224.99246  21003921.023
  21003908.730          47.200          38.800
 -27148851.369 8 -20294461.91847  20276258.984
  20276249.094          49.900          43.700
 -11906435.391 6  -8613828.45344  22831625.672
  22831616.484          40.000          27.200
 -16651136.374 7 -10943385.47044  22570468.180
  22570456.473          43.200          27.600
  -8607334.243 6  -8525774.49444  23878092.727
  23878083.363          39.100          26.400
 16  2 13  2 15 30.0000000  0 10G05G01G07G09G11G28G30G08G13G17
  -2701352.683 5  -1417483.17543  24657955.938
  24657948.391          35.700          20.400
   -720071.454 5   -762606.46142  25118062.125
  25118056.512          34.300          16.300
 -26781354.839 7 -20176569.38546  20805049.977
  20805037.918          47.200          39.800
 -11828206.470 6  -8442402.25943  23798364.727
  23798356.242          37.000          22.500
 -11305271.076 6  -6259384.37243  23364459.563
  23364447.563          38.800          22.800
 -20327499.214 7 -14794783.86446  20998412.070
  20998400.246          47.000          39.000
 -27157521.648 8 -20301217.95647  20274608.758
  20274599.570          50.300          43.700
 -11836399.841 6  -8559255.27644  22844953.281
  22844943.625          40.900          28.500
 -16733239.743 7 -11007362.06744  22554843.867
  22554832.980          43.200          28.600
  -8714043.018 6  -8608924.04444  23857787.797
  23857776.793          40.200          26.900
 16  2 13  2 16  0.0000000  0 10G05G01G07G09G11G28G30G08G13G17
  -2636913.591 5  -1367270.95843  24670218.898
  24670211.352          35.200          21.300
   -801875.414 5   -826349.76642  25102494.188
  25102490.570          33.200          14.800
 -26742067.142 7 -20145955.58646  20812526.320
  20812514.262          47.500          39.700
 -11715650.396 6  -8354696.23743  23819782.008
  23819774.813          36.800          22.200
 -11364974.884 6  -6305906.76443  23353097.242
  23353086.824          39.400          22.600
 -20356125.627 7 -14817090.13746  20992964.313
  20992952.020          47.700          38.400
 -27165858.796 8 -20307714.41947  20273022.430
  20273013.184          50.200          43.300
 -11765930.687 6  -8504344.24144  22858362.867
  22858354.031          40.300          28.600
 -16814952.235 7 -11071034.10744  22539294.695
  22539283.047          43.200          28.800
  -8820631.740 6  -8691980.07644  23837503.445
  23837493.730          38.800          26.000
 16  2 13  2 16 30.0000000  0 10G05G01G07G09G11G28G30G08G13G17
  -2572213.403 6  -1316855.23343  24682534.188
  24682523.301          37.700          19.000
   -883601.316 5   -890032.22342  25086943.164
  25086938.316          35.700          17.400
 -26702446.799 7 -20115082.58546  20820065.273
  20820053.684          47.000          40.100
 -11602980.746 6  -8266901.74243  23841223.148
  23841215.367          37.700          22.300
 -11424281.472 6  -6352119.68443  23341811.992
  23341800.930          39.700          22.900
 -20384429.323 7 -14839144.94546  20987579.086
  20987566.090          47.400          39.100
 -27173863.091 8 -20313951.51447  20271499.008
  20271489.469          50.000          43.500
 -11695031.259 6  -8449097.93044  22871855.164
  22871845.684          40.200          28.200
 -16896272.242 7 -11134400.30444  22523820.320
  22523808.730          43.100          29.800
  -8927099.112 6  -8774941.58044  23817244.188
  23817233.887          40.200          25.300
 16  2 13  2 17  0.0000000  0 10G05G01G07G09G11G28G30G08G13G17
  -2507254.621 6  -1266238.07342  24694894.797
  24694883.910          36.000          16.900
   -965245.866 6   -953651.31142  25071407.039
  25071400.957          37.300          16.900
 -26662493.389 7 -20083950.04346  20827668.602
  20827656.602          47.600          39.700
 -11490199.947 6  -8179020.62443  23862684.422
  23862676.582          37.500          22.000
 -11483188.071 6  -6398020.88543  23330603.500
  23330590.973          40.100          23.000
 -20412410.926 7 -14860948.76846  20982254.000
  20982241.473          47.300          38.600
 -27181533.549 8 -20319928.47647  20270039.477
  20270030.055          50.200          43.600
 -11623703.897 6  -8393518.16444  22885427.836
  22885418.414          40.600          28.500
 -16977196.999 7 -11197458.51644  22508420.414
  22508409.176          43.300          29.100
  -9033442.739 6  -8857806.64344  23797006.953
  23796996.594          40.900          24.800
 16  2 13  2 17 30.0000000  0 10G05G01G07G09G11G28G30G08G13G17
  -2442039.871 6  -1215421.40243  24707304.383
  24707294.316          37.300          19.600
  -1046805.683 6  -1017204.33442  25055885.977
  25055881.129          36.800          17.800
 -26622206.552 7 -20052557.70646  20835335.109
  20835322.875          47.900          39.800
 -11377310.121 6  -8091054.56343  23884166.195
  23884158.824          37.100          22.500
 -11541691.274 6  -6443607.75143  23319469.977
  23319458.328          39.500          22.600
 -20440070.639 8 -14882501.76546  20976990.133
  20976977.957          48.000          39.800
 -27188869.029 8 -20325644.43247  20268643.453
  20268634.207          49.900          42.900
 -11551950.569 6  -8337606.47944  22899081.453
  22899073.203          40.200          28.000
 -17057723.559 7 -11260206.45744  22493096.055
  22493084.992          43.400          28.400
  -9139659.401 6  -8940572.81543  23776794.711
  23776783.531          39.300          22.800
 16  2 13  2 18  0.0000000  0 10G05G01G07G09G11G28G30G08G13G17
  -2376572.298 5  -1164407.78642  24719762.234
  24719752.520          35.500          17.800
  -1128277.543 6  -1080688.84042  25040382.688
  25040377.840          36.300          14.800
 -26581585.942 7 -20020905.27946  20843064.563
  20843052.621          47.600          39.600
 -11264313.654 6  -8003005.38343  23905668.500
  23905661.773          36.900          21.500
 -11599788.695 6  -6488878.41044  23308414.570
  23308402.512          39.500          24.600
 -20467408.842 7 -14903804.24146  20971787.930
  20971775.988          47.700          39.100
 -27195868.650 8 -20331098.67347  20267311.383
  20267302.137          50.300          44.000
 -11479773.667 6  -8281364.73944  22912816.461
  22912807.977          40.500          28.700
 -17137849.127 7 -11322641.93244  22477849.516
  22477838.102          43.200          28.200
  -9245746.298 6  -9023237.87443  23756606.969
  23756596.199          38.300          23.600
 16  2 13  2 18 30.0000000  0 10G05G01G07G09G11G28G30G08G13G17
  -2310854.323 6  -1113198.98243  24732267.734
  24732257.023          36.300          18.300
  -1209658.137 5  -1122049.37342  25024896.594
  25024890.922          35.900          15.600
 -26540631.035 7 -19988992.36346  20850858.305
  20850846.246          47.800          39.600
 -11151212.965 6  -7914874.99943  23927191.922
  23927183.438          37.300          21.100
 -11657477.207 6  -6533830.45644  23297436.195
  23297424.313          40.000          24.000
 -20494425.982 7 -14924856.53346  20966646.648
  20966634.531          47.800          38.800
 -27202531.393 8 -20336290.40147  20266044.180
  20266034.348          50.600          43.800
 -11407175.453 6  -8224794.70944  22926631.609
  22926623.125          39.600          28.900
 -17217570.579 7 -11384762.50944  22462678.508
  22462667.152          43.700          27.900
  -9351701.394 6  -9105800.21343  23736444.297
  23736433.293          38.600          22.800
 16  2 13  2 19  0.0000000  0 10G05G01G07G09G11G28G30G08G13G17
  -2244889.381 6  -1061797.71643  24744821.352
  24744810.875          36.900          19.000
  -1290944.955 5  -1185389.72942  25009428.758
  25009422.910          34.500          14.800
 -26499342.630 7 -19956819.56746  20858715.016
  20858703.191          47.200          39.200
 -11038011.254 6  -7826665.92743  23948732.711
  23948725.340          36.900          22.200
 -11714754.703 6  -6578462.23543  23286536.156
  23286525.328          39.500          22.600
 -20521123.308 7 -14945659.62246  20961566.750
  20961554.516          47.700          39.300
 -27208857.153 8 -20341219.54747  20264840.320
  20264830.488          50.100          43.900
 -11334158.879 6  -8167898.69544  22940526.086
  22940517.250          39.900          28.500
 -17296886.154 7 -11446566.80744  22447584.852
  22447574.141          42.600          28.900
  -9457522.589 6  -9188258.17944  23716308.000
  23716296.352          38.400          24.300
 16  2 13  2 19 30.0000000  0 10G05G01G07G09G11G28G30G08G13G17
  -2178679.926 5  -1010206.00542  24757419.883
  24757410.051          35.400          17.400
  -1372134.475 5                  24993977.617
                        34.200
 -26457719.998 7 -19924386.34346  20866635.344
  20866623.754          47.600          39.000
 -10924710.307 6  -7738379.49143  23970292.977
  23970285.488          37.700          21.300
 -11771617.991 6  -6622771.24644  23275716.430
  23275704.430          40.100          25.100
 -20547501.047 7 -14966213.68446  20956547.195
  20956534.844          47.400          39.100
 -27214844.530 8 -20345885.02647  20263700.750
  20263691.211          50.700          43.300
 -11260725.737 6  -8110678.06444  22954499.953
  22954491.293          40.600          27.500
 -17375792.693 7 -11508052.40044  22432569.523
  22432558.227          43.800          28.800
  -9563206.423 6  -9270609.14244  23696196.875
  23696185.461          38.700          26.500
 16  2 13  2 20  0.0000000  0 10G05G01G07G09G11G28G30G08G13G17
  -2112226.993 5   -958424.45642  24770065.680
  24770055.730          35.900          17.400
  -1453221.226 5                  24978546.914
                        31.900
 -26415760.759 7 -19891690.83346  20874620.133
  20874607.898          47.300          38.800
 -10811310.577 6  -7650016.09343  23991872.203
  23991864.832          36.900          21.500
 -11828062.337 6  -6666753.83543  23264975.180
  23264963.824          40.600          22.900
 -20573557.559 7 -14986517.45046  20951588.461
  20951576.402          47.900          39.000
 -27220490.612 8 -20350284.55347  20262626.016
  20262616.711          50.900          42.900
 -11186876.669 6  -8053133.33844  22968552.914
  22968544.488          40.600          28.400
 -17454285.346 7 -11569215.46444  22417633.477
  22417621.945          43.300          29.900
  -9668748.515 6  -9352849.63444  23676112.203
  23676101.316          38.000          27.100
 16  2 13  2 20 30.0000000  0 10G05G01G07G09G11G28G30G08G13G17
  -2045539.572 5   -906460.22943  24782755.492
  24782746.305          34.700          18.600
  -1534208.803 5                  24963136.953
                        33.300
 -26373471.396 7 -19858738.07646  20882667.258
  20882655.141          47.800          39.600
 -10697821.226 6  -7561582.83343  24013469.047
  24013460.973          37.800          22.900
 -11884091.448 6  -6710412.83943  23254312.539
  23254301.711          39.800          23.900
 -20599300.303 7 -15006576.71046  20946689.852
  20946677.793          47.300          38.800
 -27225801.243 8 -20354422.69447  20261615.508
  20261605.617          50.300          43.500
 -11112620.365 6  -7995271.27844  22982683.586
  22982674.516          41.300          29.100
 -17532367.973 7 -11630059.02244  22402774.680
  22402762.973          43.600          28.900
  -9774153.097 6  -9434983.02144  23656053.586
  23656043.520          38.400          25.800
 16  2 13  2 21  0.0000000  0 10G05G01G07G09G11G28G30G08G13G17
  -1978612.264 5   -854309.12642  24795492.055
  24795481.695          35.200          17.800
  -3190505.325 4                  24947745.031
                        29.400
 -26330843.054 7 -19825521.17646  20890779.602
  20890767.074          47.600          39.800
 -10584235.930 6  -7473074.82843  24035083.891
  24035075.348          37.500          21.100
 -11939693.899 6  -6753739.39944  23243731.641
  23243720.695          40.500          25.300
 -20624720.753 7 -15026384.82346  20941853.109
  20941840.816          47.300          38.600
 -27230766.843 8 -20358291.98047  20260670.750
  20260661.152          50.900          43.500
 -11037950.663 6  -7937087.09944  22996893.266
  22996884.195          40.700          28.400
 -17610029.354 7 -11690574.35544  22387996.297
  22387984.648          43.900          29.900
  -9879408.530 6  -9517000.16044  23636025.453
  23636013.688          39.700          24.300
 16  2 13  2 21 30.0000000  0 10G05G01G07G09G11G28G30G08G13G17
  -1911456.859 5   -801980.31842  24808269.586
  24808261.160          32.600          17.400
  -3271276.667 5                  24932376.500
                        31.900
 -26287884.540 7 -19792047.01246  20898954.133
  20898942.191          47.800          39.400
 -10470566.196 5  -7384501.03643  24056714.656
  24056705.938          35.700          21.300
 -11994876.011 6  -6796738.41144  23233232.414
  23233219.301          40.200          24.700
 -20649828.818 7 -15045949.53646  20937074.297
  20937062.121          47.300          39.000
 -27235395.568 8 -20361898.76647  20259789.789
  20259780.602          50.200          43.500
 -10962878.853 6  -7878589.58744  23011178.617
  23011169.430          41.100          28.300
 -17687275.541 7 -11750766.14845  22373296.789
  22373284.906          43.200          30.400
  -9984521.428 6  -9598906.19644  23616022.680
  23616011.441          40.300          24.100
 16  2 13  2 22  0.0000000  0 11G05G01G07G09G11G28G30G20G08G13G17
  -1844072.186 5   -749472.78442  24821093.969
  24821083.844          35.100          16.900
  -3351935.445 5  -2322919.83942  24917026.523
  24917020.734          32.000          17.400
 -26244591.696 7 -19758312.32346  20907192.688
  20907180.219          47.800          39.100
 -10356810.319 5  -7295860.09243  24078361.477
  24078352.582          35.200          21.100
 -12049631.191 6  -6839404.74844  23222811.656
  23222800.301          41.000          25.700
 -20674620.975 7 -15065268.07146  20932357.070
  20932344.719          47.600          38.900
 -27239682.514 8 -20365239.23347  20258973.680
  20258964.492          50.100          43.800
  -1550205.864 5                  25148433.438
                        31.800
 -10887403.318 6  -7819777.47444  23025540.750
  23025531.387          40.800          26.900
 -17764100.039 7 -11810629.36144  22358676.898
  22358665.953          43.400          29.100
 -10089485.383 6  -9680696.22444  23596048.156
  23596037.211          39.900          26.300
 16  2 13  2 22 30.0000000  0 11G05G01G07G09G11G28G30G20G08G13G17
  -1776457.715 5   -696786.19642  24833960.250
  24833950.301          34.600          15.600
  -3432475.739 5  -2385678.41842  24901701.039
  24901694.547          31.800          16.300
 -26200961.507 7 -19724314.76746  20915494.305
  20915483.125          47.500          38.800
 -10242967.999 5  -7207151.81643  24100024.648
  24100016.691          34.300          20.900
 -12103953.851 6  -6881734.07544  23212474.891
  23212463.066          41.000          25.500
 -20699094.778 7 -15084338.55646  20927699.070
  20927687.480          47.300          39.800
 -27243624.080 8 -20368310.56847  20258224.180
  20258214.289          50.200          43.200
  -1531903.174 4                  25151916.297
                        29.600
 -10811523.892 6  -7760650.64444  23039980.617
  23039971.313          39.900          26.900
 -17840497.239 7 -11870159.60545  22344139.898
  22344128.426          44.000          30.600
 -10194294.882 6  -9762365.86244  23576103.492
  23576092.605          39.000          27.300
 16  2 13  2 23  0.0000000  0 11G05G01G07G09G11G28G30G20G08G13G17
  -1708610.820 5   -643918.47542  24846871.727
  24846861.367          35.600          17.400
  -3512887.946 5  -2448337.13642  24886399.070
  24886392.402          31.900          15.600
 -26156987.383 7 -19690049.20746  20923863.156
  20923851.273          47.500          39.000
 -10129035.281 5  -7118373.08343  24121705.836
  24121697.293          34.000          20.600
 -12157834.997 6  -6923719.34744  23202222.109
  23202209.699          41.700          24.800
 -20723244.689 7 -15103156.64946  20923103.984
  20923091.340          47.900          39.300
 -27247213.051 8 -20371107.15947  20257541.164
  20257531.742          50.000          43.500
  -1513123.460 4                  25155488.094
                        29.100
 -10735236.393 6  -7701205.84044  23054497.078
  23054488.242          41.200          26.700
 -17916458.066 7 -11929349.82245  22329685.570
  22329673.453          44.100          30.200
 -10298941.133 6  -9843908.29244  23556190.109
  23556179.164          40.500          26.500
 16  2 13  2 23 30.0000000  0 11G05G01G07G09G11G28G30G20G08G13G17
  -1640558.731 5   -590890.88943  24859821.359
  24859811.527          35.400          20.100
  -3593193.247 5  -2510912.64242  24871116.391
  24871110.426          31.600          15.600
 -26112693.701 8 -19655534.64646  20932291.813
  20932279.988          48.000          38.800
 -10015039.084 5  -7029544.89943  24143398.266
  24143389.723          34.100          19.600
 -12211296.536 6  -6965377.64644  23192048.594
  23192036.066          41.700          25.900
 -20747095.832 7 -15121741.93746  20918565.164
  20918552.988          47.400          38.900
 -27250473.022 8 -20373647.39147  20256920.539
  20256911.410          51.000          43.800
  -1493892.591 5                  25159149.797
                        32.400
 -10658567.850 6  -7641464.09944  23069086.609
  23069077.598          40.000          25.600
 -17992004.239 7 -11988216.91844  22315308.672
  22315297.023          43.500          29.700
 -10403445.639 6  -9925340.30744  23536302.320
  23536292.781          40.600          26.400
 16  2 13  2 24  0.0000000  0 11G05G01G07G09G11G28G30G20G08G13G17
  -1572276.711 5   -537684.15643  24872813.734
  24872805.777          34.600          19.000
  -3673361.426 4  -2573381.28142  24855858.672
  24855854.527          29.100          16.900
 -26068052.984 7 -19620749.67646  20940787.031
  20940774.973          47.500          38.800
  -9900954.659 5  -6940647.96543  24165107.180
  24165099.457          34.300          19.900
 -12264308.227 7  -7006685.42244  23181960.719
  23181948.367          42.100          25.000
 -20770621.381 7 -15140073.51146  20914088.555
  20914076.320          47.300          39.400
 -27253375.896 8 -20375909.35947  20256368.398
  20256358.742          50.600          43.400
  -1474184.717 5                  25162898.063
                        30.500
 -10581493.345 6  -7581406.03944  23083753.594
  23083744.406          39.300          26.500
 -18067105.981 7 -12046737.71445  22301017.250
  22301005.836          44.300          30.700
 -10507778.730 6 -10006638.72944  23516449.313
  23516438.777          41.100          27.400
 16  2 13  2 24 30.0000000  0 12G05G01G07G09G11G19G28G30G20G08G13G17
  -1503786.587 5   -484315.27742  24885848.656
  24885838.707          35.200          17.400
  -3753407.786 5  -2635755.01343  24840628.578
  24840621.676          32.800          19.000
 -26023083.910 7 -19585708.83846  20949344.195
  20949331.902          47.800          38.700
  -9786803.217 5  -6851698.82343  24186830.227
  24186822.035          34.900          21.100
 -12316886.425 6  -7047655.42044  23171955.133
  23171943.133          41.500          26.000
   -425168.44314                  25577985.219
                        29.600
 -20793840.803 7 -15158166.54946  20909670.023
  20909657.320          47.100          39.700
 -27255939.756 8 -20377907.16847  20255880.414
  20255870.641          49.600          43.500
  -1454019.882 5                  25166737.070
                        32.400
 -10504034.424 6  -7521048.43844  23098493.563
  23098484.668          39.200          27.300
 -18141779.598 7 -12104924.91945  22286807.484
  22286795.602          43.800          30.800
 -10611956.967 6 -10087816.49044  23496623.852
  23496614.430          40.700          26.700
 16  2 13  2 25  0.0000000  0 12G05G01G07G09G11G19G28G30G20G08G13G17
  -1435078.821 5   -430776.77542  24898920.625
  24898913.254          33.100          17.400
  -3833316.648 5  -2698021.57943  24825422.211
  24825415.719          33.000          20.400
 -25977774.111 7 -19550402.49546  20957966.281
  20957954.398          47.400          38.600
  -9672574.623 5  -6762689.57843  24208567.375
  24208558.832          35.400          19.300
 -12369015.745 7  -7088275.64844  23162034.539
  23162023.242          42.000          25.500
   -547780.19115                  25554655.094
                        32.600
 -20816742.457 7 -15176011.96946  20905311.930
  20905299.754          46.900          38.600
 -27258151.083 8 -20379630.27047  20255459.586
  20255450.398          51.000          43.100
  -1433386.845 4                  25170660.797
                        29.900
 -10426180.373 6  -7460382.93844  23113308.313
  23113299.359          39.000          25.800
 -18216009.528 7 -12162766.38145  22272682.148
  22272670.148          43.600          31.100
 -10715965.213 6 -10168861.77644  23476831.969
  23476822.254          41.400          28.400
 16  2 13  2 25 30.0000000  0 12G05G01G07G09G11G19G28G30G20G08G13G17
  -1366165.006 6   -377077.73843  24912036.367
  24912026.945          36.900          18.300
  -3913094.011 5  -2760185.65643  24810241.250
  24810234.582          33.800          20.400
 -25932132.216 7 -19514837.37746  20966651.836
  20966639.602          47.600          38.900
  -9558280.319 6  -6673629.09743  24230316.500
  24230308.777          36.100          20.100
 -12420702.830 6  -7128551.26344  23152199.469
  23152187.410          41.600          25.700
   -670457.125 5   -181249.19442  25531309.641
  25531299.809          32.400          17.800
 -20839335.766 7 -15193617.13046  20901012.688
  20901000.395          47.200          39.600
 -27260018.163 8 -20381085.12247  20255104.453
  20255094.797          50.800          43.500
  -1412296.011 5                  25174675.250
                        30.300
 -10347943.125 6  -7399418.85244  23128196.320
  23128187.660          40.100          26.000
 -18289802.392 7 -12220267.28045  22258639.672
  22258628.141          44.100          31.000
 -10819810.117 6 -10249779.80444  23457072.086
  23457061.082          41.700          27.100
 16  2 13  2 26  0.0000000  0 12G05G01G07G09G11G19G28G30G20G08G13G17
  -1297044.154 6   -323217.27843  24925189.391
  24925180.379          36.400          20.100
  -3992732.584 5  -2822241.61943  24795087.039
  24795080.137          33.000          19.300
 -25886154.016 8 -19479010.20546  20975400.945
  20975389.063          48.000          38.500
  -9443918.748 6  -6584516.18643  24252079.211
  24252070.609          36.800          19.300
 -12471940.680 6  -7168476.83844  23142449.328
  23142436.977          41.100          25.300
   -793192.88814   -276886.99752  25507951.992
  25507943.508          29.900          16.900
 -20861616.851 7 -15210978.99546  20896772.773
  20896760.246          47.200          39.100
 -27261536.100 8 -20382267.91147  20254815.641
  20254805.867          50.400          43.700
  -1390744.871 5                  25178777.172
                        31.200
 -10269321.067 6  -7338154.92244  23143158.219
  23143149.441          40.200          25.800
 -18363151.418 7 -12277422.33245  22244681.961
  22244669.961          43.900          31.400
 -10923484.555 7 -10330565.03844  23437343.383
  23437332.262          42.000          28.300
 16  2 13  2 26 30.0000000  0 12G05G01G07G09G11G19G28G30G20G08G13G17
  -1227720.224 6   -269198.73143  24938382.180
  24938372.758          36.800          20.400
  -4072230.016 5  -2884187.58043  24779958.328
  24779951.660          33.800          19.900
 -25839840.391 7 -19442921.66446  20984214.578
  20984202.285          47.800          38.800
  -9329493.318 6  -6495353.53443  24273854.781
  24273845.594          36.900          20.400
 -12522728.004 6  -7208051.34544  23132785.070
  23132772.777          41.500          25.600
   -915985.710 5   -372569.61542  25484585.898
  25484575.656          32.000          16.300
 -20883587.983 8 -15228099.34546  20892591.227
  20892578.992          48.400          39.500
 -27262705.098 8 -20383178.80747  20254593.164
  20254583.391          50.800          43.500
  -1368735.759 5                  25182965.539
                        31.200
 -10190317.612 6  -7276593.79544  23158191.961
  23158183.008          40.900          26.900
 -18436055.192 7 -12334230.44445  22230808.555
  22230796.906          44.300          31.100
 -11026987.326 6 -10411216.48544  23417647.180
  23417635.941          41.600          26.900
 16  2 13  2 27  0.0000000  0 12G05G01G07G09G11G19G28G30G20G08G13G17
  -1158194.709 5   -215023.01643  24951610.758
  24951602.566          35.200          19.000
  -4151581.405 5  -2946019.76543  24764858.859
  24764851.664          32.900          18.600
 -25793189.481 7 -19406570.30146  20993091.727
  20993079.316          47.300          38.900
  -9215004.735 6  -6406141.69243  24295639.828
  24295632.223          36.000          20.900
 -12573060.414 6  -7247271.38244  23123206.469
  23123194.293          40.900          24.000
  -1038832.195 5   -468293.86242  25461208.453
  25461198.680          30.700          16.900
 -20905247.948 7 -15244977.21746  20888469.773
  20888457.656          47.600          39.100
 -27263522.670 8 -20383815.86947  20254437.297
  20254427.992          50.400          43.300
  -1346268.566 5                  25187241.023
                        30.700
 -10110933.626 6  -7214736.13044  23173298.125
  23173289.641          40.600          27.700
 -18508509.138 7 -12390688.02445  22217020.906
  22217009.551          44.500          30.900
 -11130313.960 6 -10491730.71044  23397983.539
  23397973.883          40.700          26.700
 16  2 13  2 27 30.0000000  0 12G05G01G07G09G11G19G28G30G20G08G13G17
  -1088466.800 6   -160689.56343  24964880.852
  24964871.254          36.300          19.600
  -4230780.299 5  -3007733.10443  24749786.938
  24749780.563          35.500          20.400
 -25746198.011 7 -19369953.56946  21002033.711
  21002021.770          47.100          39.100
  -9100452.219 6  -6316879.99243  24317437.641
  24317430.328          36.300          21.500
 -12622932.381 6  -7286132.62544  23113716.023
  23113704.023          41.200          25.800
  -1161725.88015   -564054.98252  25437821.570
  25437812.266          31.600          14.800
 -20926594.102 7 -15261610.56546  20884408.000
  20884395.355          47.500          39.300
 -27263984.704 8 -20384175.88447  20254349.648
  20254339.992          50.800          43.600
  -1323341.40714                  25191602.352
                        26.400
 -10031168.099 6  -7152581.17644  23188477.367
  23188468.590          41.100          28.400
 -18580507.649 7 -12446790.73545  22203320.328
  22203308.152          44.800          31.100
 -11233458.864 6 -10572103.31044  23378356.508
  23378345.914          40.900          27.000
 16  2 13  2 28  0.0000000  0 12G05G01G07G09G11G19G28G30G20G08G13G17
  -1018548.385 5   -106207.76243  24978185.445
  24978176.844          34.800          20.400
  -4309832.723 5  -3069332.32443  24734744.352
  24734736.922          35.000          19.900
 -25698875.511 8 -19333078.89446  21011038.992
  21011026.992          48.000          38.600
  -8985847.451 5  -6227577.58743  24339247.352
  24339238.691          35.400          19.900
 -12672350.425 6  -7324640.17544  23104312.195
  23104299.961          39.800          24.100
  -1284673.75415   -659858.36552  25414424.820
  25414415.867          30.100          15.600
 -20947636.626 7 -15278007.32446  20880403.516
  20880391.105          47.500          40.300
 -27264099.663 8 -20384265.44747  20254327.328
  20254318.082          50.500          43.500
  -1299965.18014                  25196052.883
                        28.600
  -9951032.961 6  -7090138.21244  23203726.797
  23203717.375          40.600          25.800
 -18652057.221 7 -12502543.61345  22189704.570
  22189692.980          45.500          30.900
 -11336428.633 6 -10652339.44944  23358762.211
  23358751.383          41.800          27.400
 16  2 13  2 28 30.0000000  0 11G05G01G07G09G11G19G28G30G08G13G17
   -948440.159 5    -51578.02742  24991526.164
  24991517.387          33.700          17.800
  -4388732.584 5  -3130812.65943  24719730.586
  24719723.273          35.200          20.600
 -25651218.665 7 -19295943.68246  21020107.172
  21020095.465          47.000          38.300
  -8871189.899 5  -6138234.02843  24361065.813
  24361057.504          35.500          19.600
 -12721309.278 6  -7362789.90343  23094995.375
  23094982.965          41.000          23.600
  -1407670.268 5   -755699.56642  25391023.023
  25391010.789          34.800          17.800
 -20968372.810 7 -15294165.37446  20876457.438
  20876445.145          47.900          39.600
 -27263863.868 8 -20384081.70447  20254372.742
  20254362.969          51.100          43.500
  -9870527.703 6  -7027406.83644  23219046.250
  23219036.594          40.600          27.200
 -18723152.099 7 -12557942.20045  22176175.539
  22176164.184          44.400          30.900
 -11439217.443 6 -10732434.56844  23339202.328
  23339191.793          41.900          28.800
 16  2 13  2 29  0.0000000  0 12G05G01G07G09G11G19G28G30G15G08G13G17
   -878141.607 6      3200.07343  25004905.281
  25004894.395          36.500          18.300
  -4467473.398 6  -3192169.07143  24704746.797
  24704739.367          37.000          21.800
 -25603223.986 7 -19258545.22746  21029240.258
  21029228.492          47.600          38.400
  -8756478.747 5  -6048848.74043  24382893.859
  24382886.547          35.000          18.600
 -12769802.894 6  -7400577.10444  23085768.016
  23085754.902          40.200          24.400
  -1530709.45715   -851574.10652  25367607.695
  25367597.863          30.300          14.800
 -20988800.162 7 -15310082.76446  20872570.164
  20872558.047          47.600          39.400
 -27263273.160 8 -20383621.40547  20254484.867
  20254475.035          50.500          43.500
    181181.40715                  25306538.219
                        31.200
  -9789651.578 6  -6964386.46444  23234436.570
  23234427.090          39.400          24.700
 -18793786.336 7 -12612981.83845  22162734.250
  22162722.543          44.700          31.500
 -11541820.087 7 -10812384.64644  23319677.758
  23319667.047          42.200          27.700
 16  2 13  2 29 30.0000000  0 12G05G01G07G09G11G19G28G30G15G08G13G17
   -807656.568 5     58123.43343  25018317.188
  25018307.590          34.300          18.600
  -4546053.021 6  -3253399.89543  24689793.859
  24689785.668          37.900          20.400
 -25554892.668 7 -19220884.46146  21038437.656
  21038426.066          47.600          38.500
  -8641717.521 5  -5959424.42643  24404732.641
  24404724.625          35.700          18.300
 -12817830.031 6  -7438000.82144  23076628.148
  23076616.148          40.800          25.800
  -1653790.400 4                  25344187.688
                        28.600
 -21008920.633 7 -15325761.04246  20868741.422
  20868729.070          47.100          38.900
 -27262327.992 8 -20382884.88947  20254664.445
  20254655.082          50.700          42.900
     85835.295 5                  25288394.602
                        32.500
  -9708408.005 6  -6901079.78044  23249896.336
  23249887.266          39.400          25.600
 -18863959.509 7 -12667662.20445  22149380.594
  22149369.180          44.600          30.800
 -11644234.881 7 -10892188.31944  23300188.609
  23300177.957          42.000          29.000
 16  2 13  2 30  0.0000000  0 12G05G01G07G09G11G19G28G30G15G08G13G17
   -736988.358 6    113189.51443  25031765.258
  25031755.543          36.200          18.600
  -4624468.848 6  -3314503.10843  24674871.133
  24674863.996          37.400          19.300
 -25506225.270 7 -19182961.81246  21047698.859
  21047687.035          47.500          38.700
  -8526909.168 5  -5869963.38843  24426580.234
  24426571.867          35.000          18.300
 -12865388.638 6  -7475059.46043  23067578.125
  23067566.184          41.100          23.000
  -1776910.878 5                  25320758.945
                        33.400
 -21028735.378 7 -15341201.07646  20864970.813
  20864958.168          47.400          39.200
 -27261028.009 7 -20381871.90847  20254911.773
  20254902.586          46.300          43.600
     -9279.237 5                  25270294.945
                        32.800
  -9626800.246 6  -6837489.34244  23265425.336
  23265416.148          37.700          25.000
 -18933668.824 7 -12721981.11645  22136115.547
  22136103.781          44.600          31.000
 -11746459.641 6 -10971843.92144  23280735.781
  23280724.719          41.100          28.400
 16  2 13  2 30 30.0000000  0 12G05G01G07G09G11G19G28G30G15G08G13G17
   -666139.907 5    168396.12943  25045248.102
  25045237.684          35.900          18.300
  -4702717.294 6  -3375475.88043  24659980.984
  24659974.023          37.700          20.100
 -25457221.423 7 -19144776.98746  21057023.898
  21057012.426          47.400          38.900
  -8412055.935 5  -5780467.36543  24448435.992
  24448428.094          35.300          18.300
 -12912475.993 6  -7511750.89044  23058617.953
  23058605.895          41.300          25.000
  -1900067.963 5                  25297321.789
                        32.600
 -21048244.730 7 -15356403.15546  20861258.383
  20861246.207          47.500          39.200
 -27259372.222 7 -20380581.66647  20255226.977
  20255217.262          46.900          44.000
   -104159.766 5    428763.85953  25252239.305
  25252228.828          34.500          18.300
  -9544830.675 6  -6773616.93544  23281023.977
  23281014.613          38.700          24.300
 -19002911.371 7 -12775936.31845  22122938.406
  22122927.461          43.700          31.200
 -11848491.964 6 -11051349.58944  23261317.133
  23261308.004          40.100          28.100
 16  2 13  2 31  0.0000000  0 12G05G01G07G09G11G19G28G30G15G08G13G17
   -595114.689 5    223740.39043  25058763.133
  25058753.594          34.900          18.300
  -4780795.886 6  -3436316.27942  24645122.539
  24645116.164          36.700          17.800
 -25407881.736 7 -19106330.47046  21066413.500
  21066401.148          47.600          39.300
  -8297160.850 5  -5690938.76342  24470299.867
  24470291.676          35.000          17.400
 -12959090.422 6  -7548073.80344  23049747.477
  23049735.594          41.400          25.600
  -2023260.065 5   -778077.08753  25273879.242
  25273864.195          35.500          20.900
 -21067450.327 7 -15371368.53746  20857603.633
  20857590.988          47.200          39.400
 -27257360.541 8 -20379014.10647  20255609.797
  20255600.258          49.600          43.400
   -198804.001 5    355015.18742  25234228.727
  25234219.949          35.500          17.400
  -9462502.346 6  -6709465.00144  23296690.406
  23296681.629          39.700          26.000
 -19071685.574 7 -12829526.57945  22109851.898
  22109840.309          44.500          31.300
 -11950329.876 6 -11130703.76144  23241939.891
  23241929.297          40.900          28.200
 16  2 13  2 31 30.0000000  0 12G05G01G07G09G11G19G28G30G15G08G13G17
   -523915.247 5    279220.40842  25072311.469
  25072302.281          34.100          17.400
  -4858701.274 6  -3497021.77042  24630297.453
  24630290.023          37.100          17.400
 -25358206.012 7 -19067622.11446  21075866.000
  21075853.941          47.500          38.600
  -8182226.114 5  -5601379.20543  24492171.930
  24492163.504          34.700          19.000
 -13005229.362 6  -7584026.21744  23040967.445
  23040955.094          40.200          24.200
  -2146484.106 6   -874095.78842  25250431.172
  25250416.535          37.500          15.600
 -21086352.283 7 -15386097.31446  20854006.336
  20853994.277          47.100          39.400
 -27254991.956 8 -20377168.45047  20256060.555
  20256050.723          50.800          43.800
   -293209.500 5    281452.50342  25216264.031
  25216254.375          34.500          16.900
  -9379817.395 6  -6645035.16144  23312425.055
  23312415.867          39.700          25.600
 -19139988.546 7 -12882749.65745  22096854.414
  22096842.824          44.900          31.900
 -12051970.821 7 -11209904.41344  23222598.781
  23222587.953          42.400          27.900
 16  2 13  2 32  0.0000000  0 12G05G01G07G09G11G19G28G30G15G08G13G17
   -452544.116 5    334834.30843  25085892.023
  25085884.184          34.000          19.000
  -4936429.498 6  -3557589.10343  24615507.453
  24615498.500          38.600          18.600
 -25308193.576 7 -19028651.38346  21085383.336
  21085370.926          47.600          38.600
  -8067253.606 5  -5511790.27443  24514048.859
  24514041.840          33.900          18.600
 -13050889.753 6  -7619605.70544  23032277.797
  23032266.266          40.500          24.000
  -2269737.262 6   -970137.06042  25226975.523
  25226963.582          36.400          16.300
 -21104950.828 7 -15400589.66346  20850467.266
  20850454.738          47.500          39.300
 -27252265.144 8 -20375043.65147  20256579.375
  20256569.836          50.400          43.200
   -387373.054 5    208078.45642  25198345.344
  25198335.922          34.800          17.400
  -9296777.907 6  -6580329.05744  23328227.078
  23328217.598          39.800          26.200
 -19207817.341 7 -12935603.23945  22083947.219
  22083935.863          44.300          31.900
 -12153411.545 7 -11288949.06744  23203295.125
  23203284.180          42.500          29.900
 16  2 13  2 32 30.0000000  0 12G05G01G07G09G11G19G28G30G15G08G13G17
   -381002.319 5    390581.08743  25099506.961
  25099498.301          34.900          18.600
  -5013975.606 6  -3618014.59343  24600750.078
  24600742.297          37.800          18.300
 -25257842.525 7 -18989416.80146  21094964.773
  21094952.422          47.300          38.600
  -7952243.968 5  -5422172.37842  24535934.680
  24535927.484          34.300          17.400
 -13096067.466 6  -7654809.08143  23023680.875
  23023669.227          40.800          23.600
  -2393015.001 5  -1066197.55042  25203514.953
  25203504.887          34.600          15.600
 -21123245.171 7 -15414844.98146  20846985.789
  20846973.672          47.500          39.400
 -27249177.551 8 -20372637.72547  20257167.156
  20257157.441          50.200          44.100
   -481290.450 5    134896.09042  25180473.133
  25180464.766          34.200          16.900
  -9213385.037 6  -6515347.58844  23344095.820
  23344087.336          39.900          27.200
 -19275167.442 7 -12988083.79145  22071130.102
  22071119.215          44.300          31.600
 -12254647.827 7 -11367834.41445  23184030.617
  23184019.555          42.200          30.900
 16  2 13  2 33  0.0000000  0 12G05G01G07G09G11G19G28G30G15G08G13G17
   -309299.435 5    446453.36242  25113150.031
  25113142.543          33.600          17.800
  -5091342.872 6  -3678300.75242  24586027.344
  24586019.152          36.700          17.400
 -25207159.609 7 -18949923.62446  21104609.852
  21104597.383          47.100          38.900
  -7837206.107 5  -5332532.47642  24557826.953
  24557818.645          34.200          17.800
 -13140766.512 6  -7689639.49543  23015175.016
  23015163.250          41.100          23.000
  -2516321.168 6  -1162280.06542  25180052.047
  25180040.340          37.300          16.900
 -21141242.244 7 -15428868.66346  20843562.023
  20843548.910          47.800          39.500
 -27245734.961 8 -20369955.17647  20257822.148
  20257812.434          50.300          43.200
   -574965.334 5     61902.77742  25162647.602
  25162638.590          33.800          17.800
  -9129647.222 6  -6450097.34844  23360030.688
  23360021.734          39.800          25.500
 -19342043.089 7 -13040194.66245  22058404.305
  22058393.008          44.600          31.800
 -12355683.017 7 -11446563.09144  23164804.008
  23164793.063          42.400          29.700
 16  2 13  2 33 30.0000000  0 12G05G01G07G09G11G19G28G30G15G08G13G17
   -237430.562 5    502455.05742  25126828.414
  25126819.227          35.500          17.400
  -5168519.872 6  -3738438.60543  24571341.289
  24571333.039          36.800          18.300
 -25156136.506 7 -18910165.35846  21114318.320
  21114307.082          46.800          39.000
  -7722134.162 5  -5242866.07143  24579723.906
  24579716.477          33.900          19.000
 -13184976.424 6  -7724088.73143  23006762.727
  23006749.965          39.200          23.500
  -2639645.002 5  -1258376.43342  25156583.492
  25156571.844          34.300          16.300
 -21158934.543 7 -15442654.85246  20840194.727
  20840182.199          47.300          39.800
 -27241928.308 8 -20366988.94547  20258546.836
  20258537.121          49.900          43.300
   -668387.096 5    -10893.28443  25144869.125
  25144861.109          33.700          18.300
  -9045558.691 6  -6384573.82144  23376033.109
  23376023.863          39.400          25.800
 -19408433.636 7 -13091927.53545  22045770.688
  22045759.039          45.300          32.400
 -12456507.610 7 -11525127.62544  23145617.961
  23145606.781          42.200          28.900
 16  2 13  2 34  0.0000000  0 12G05G01G07G09G11G19G28G30G15G08G13G17
   -165406.538 5    558577.67742  25140533.914
  25140525.254          35.000          16.300
  -5245512.038 6  -3798432.42642  24556691.359
  24556682.289          37.900          17.400
 -25104781.924 7 -18870148.78846  21124091.148
  21124079.207          47.000          38.500
  -7607039.195 5  -5153181.72042  24601625.367
  24601618.230          34.900          17.800
 -13228703.354 6  -7758161.65144  22998441.977
  22998429.098          40.700          25.300
  -2762992.622 5  -1354491.33543  25133110.859
  25133099.563          35.000          19.300
 -21176331.472 7 -15456210.88446  20836884.258
  20836871.320          47.300          39.400
 -27237765.575 8 -20363745.24647  20259338.672
  20259329.074          50.700          43.400
   -761562.070 5    -83497.07643  25127138.914
  25127130.488          34.200          18.300
  -8961131.018 6  -6318786.03643  23392098.281
  23392089.504          38.700          23.200
 -19474345.035 7 -13143287.04445  22033228.031
  22033216.734          44.600          32.400
 -12557126.801 6 -11603532.13944  23126469.188
  23126459.063          41.400          29.400
 16  2 13  2 34 30.0000000  0 12G05G01G07G09G11G19G28G30G15G08G13G17
    -93223.115 5    614824.43342  25154269.555
  25154261.070          33.700          17.400
  -5322309.038 6  -3858274.19043  24542076.047
  24542068.910          36.200          19.300
 -25053088.658 7 -18829868.31346  21133928.383
