     2              OBSERVATION DATA    M (MIXED)           RINEX VERSION / TYPE
CCRINEXO V2.3.3 UX  BKG, Frankfurt/M.   02-MAY-09 00:23     PGM / RUN BY / DATE
Concatenated RINEX hourly files                             COMMENT
teqc  2007Jun25     PERL SCRIPT         20090501  0:01:     COMMENT
MSXP|IAx86-PII|bcc32 5.0|MSWin95->XP|486/DX+                COMMENT
BIT 2 OF LLI FLAGS DATA COLLECTED UNDER A/S CONDITION       COMMENT
Forced Modulo Decimation to 30 seconds                      COMMENT
 SNR is mapped to RINEX snr flag value [0-9]                COMMENT
  L1 & L2: min(max(int(snr_dBHz/6), 0), 9)                  COMMENT
pseudorange smoothing corrections not applied               COMMENT
BOGI                                                        MARKER NAME
12207M003                                                   MARKER NUMBER
M. SEKOWSKI         IGIK                                    OBSERVER / AGENCY
MT311525256         JPS LEGACY          2.6.1 Jan,10,2008   REC # / TYPE / VERS
CR520005005         ASH701945C_M    SNOW                    ANT # / TYPE
  3633815.7000  1397453.9000  5035280.8000                  APPROX POSITION XYZ
        0.0534        0.0000        0.0000                  ANTENNA: DELTA H/E/N
     1     1                                                WAVELENGTH FACT L1/2
     9    C1    P1    P2    L1    L2    D1    D2    S1    S2# / TYPES OF OBSERV
    30.000                                                  INTERVAL
    15                                                      LEAP SECONDS
  2009     5     1     0     0   30.000000      GPS         TIME OF FIRST OBS
                                                            END OF HEADER
 09  5  1  0  0 30.0000000  1 16G10G12G31R06G24R21G02R11R22G05G29R13
                                R20G21G30G23
  23072504.927    23072504.906    23072505.329     3806343.704 6   2203383.223 3
       973.850         758.849          38.000          21.000
  24863361.787    24863362.359    24863360.777      634457.47345   1148061.45642
     -3478.778       -2710.778          34.000          14.000
  22293278.018    22293278.297    22293277.205     3905777.50047   3206889.82946
     -1640.003       -1277.925          47.000          36.000
  22439541.539    22439541.596    22439540.876     2511716.192 5   1021519.514 5
      3569.353        2776.162          35.000          35.000
  20648691.119    20648690.759    20648691.757     3652031.22248    666887.25147
       439.846         342.736          51.000          42.000
  19599970.783    19599970.558    19599975.825       25835.418 8   1884268.234 8
      -836.968        -650.978          48.000          50.000
  24824557.718                                      430539.181 4
     -3391.880                          26.000
  21671444.433    21671444.130    21671452.755     2559437.144 7   1990713.471 7
     -3746.395       -2913.861          44.000          43.000
  20794494.767    20794493.894    20794502.540     1950550.424 8   2449215.214 7
      2521.348        1961.044          50.000          47.000
  24426793.274    24426791.424    24426793.025     2534538.44746   3554651.27742
     -3698.916       -2882.253          39.000          17.000
  20477507.218    20477507.167    20477506.759     2752456.53148   4160249.91647
      -564.745        -440.061          52.000          45.000
  23056396.155    23056395.807    23056403.908     1485063.256 6   3485256.611 6
      3726.175        2898.142          41.000          40.000
  22799910.232    22799909.104    22799916.848      286571.562 6   2553102.940 6
     -3371.012       -2621.904          38.000          41.000
  22449744.618    22449744.148    22449742.981      533689.859 7   3847583.576 5
      2915.117        2271.514          47.000          32.000
  21977451.643    21977450.998    21977451.334     2246119.005 8   1913643.692 5
     -3026.840       -2358.580          48.000          34.000
  25079761.708    25079760.002    25079756.345     1771624.406 6   2034152.430 1
      -869.859        -677.806          38.000          10.000
 09  5  1  0  1  0.0000000  0 15G10G12G31R06G24R21R11R22G05G29R13R20
                                G21G30G23
  23067002.186    23067000.465    23067002.240     3777425.658 6   2180849.719 3
       953.607         743.064          40.000          22.000
  24883227.540    24883231.015    24883228.508      738867.82545   1229420.16642
     -3482.277       -2713.458          34.000          14.000
  22302688.155    22302688.107    22302686.707     3955225.10048   3245420.40946
     -1656.865       -1291.064          48.000          36.000
  22419553.698    22419552.034    22419550.163     2404859.192 5    938408.526 5
      3554.096        2764.289          35.000          35.000
  20646234.937    20646234.676    20646235.686     3639124.08648    656829.75847
       420.237         327.455          52.000          42.000
  19604703.219    19604702.971    19604708.397       51160.167 8   1903965.270 8
      -851.699        -662.433          49.000          50.000
  21692517.247    21692515.730    21692524.211     2672036.266 7   2078290.543 7
     -3760.520       -2924.848          44.000          43.000
  20780356.674    20780355.799    20780363.917     1875079.026 8   2390515.250 7
      2509.673        1951.965          50.000          47.000
  24447918.503    24447918.069    24447919.792     2645555.51946   3641158.15142
     -3702.515       -2885.112          39.000          16.000
  20480766.345    20480766.471    20480766.058     2769584.34948   4173596.26747
      -577.486        -449.989          52.000          45.000
  23035503.868    23035504.011    23035510.955     1373498.485 6   3398484.034 6
      3710.975        2886.314          41.000          39.000
  22818828.686    22818828.149    22818836.843      387742.316 6   2631791.297 6
     -3374.147       -2624.337          38.000          41.000
  22433129.578    22433129.035    22433128.228      446379.049 7   3779549.192 5
      2905.210        2263.796          47.000          32.000
  21994760.385    21994760.925    21994760.832     2337082.75548   1984524.52745
     -3037.761       -2367.088          48.000          34.000
  25084777.608    25084775.314    25084774.352     1797984.083 6   2054692.424 2
      -887.774        -691.807          37.000          13.000
 09  5  1  0  1 30.0000000  0 15G10G12G31R06G24R21R11R22G05G29R13R20
                                G21G30G23
  23061613.572    23061613.491    23061614.834     3749112.866 6   2158787.822 3
       933.672         727.546          38.000          22.000
  24903116.884    24903116.422    24903116.116      843377.31946   1310856.16442
     -3485.287       -2715.812          36.000          16.000
  22312192.742    22312192.793    22312191.480     4005173.34748   3284341.10245
     -1673.257       -1303.829          48.000          35.000
  22399649.466    22399648.519    22399647.895     2298464.671 5    855657.228 5
      3538.819        2752.422          35.000          35.000
  20643889.888    20643889.700    20643890.755     3626801.23448    647227.54246
       401.076         312.527          51.000          41.000
  19609517.239    19609516.861    19609522.716       76922.566 8   1924002.690 8
      -865.994        -673.555          48.000          50.000
  21713665.086    21713665.059    21713674.158     2785053.665 7   2166192.963 7
     -3774.128       -2935.431          43.000          43.000
  20766284.207    20766282.968    20766290.754     1799954.891 8   2332085.363 7
      2498.374        1943.178          50.000          47.000
  24469064.652    24469063.543    24469063.447     2756674.93446   3727744.69542
     -3705.689       -2887.561          38.000          16.000
  20484097.274    20484097.591    20484097.250     2787089.44248   4187236.59647
      -589.759        -459.552          52.000          45.000
  23014697.303    23014697.057    23014703.451     1262390.772 7   3312066.923 6
      3695.934        2874.621          42.000          38.000
  22837766.320    22837764.788    22837773.473      489002.586 6   2710549.245 6
     -3376.772       -2626.372          38.000          41.000
  22416570.571    22416570.046    22416569.537      359362.109 8   3711743.796 5
      2895.674        2256.370          48.000          32.000
  22012132.342    22012132.204    22012132.609     2428369.72048   2055657.21245
     -3048.221       -2375.236          48.000          34.000
  25089891.438    25089892.631    25089890.637     1824873.697 5   2075645.392 1
      -905.027        -705.193          35.000          10.000
 09  5  1  0  2  0.0000000  0 15G10G12G31R06G24R21R11R22G05G29R13R20
                                G21G30G23
  23056343.038    23056342.055    23056343.509     3721410.731 6   2137201.779 3
       913.723         711.983          40.000          22.000
  24923025.067    24923022.878    24923023.751      947988.29945   1392371.23142
     -3488.157       -2718.051          35.000          17.000
  22321792.714    22321793.128    22321792.100     4055624.22248   3323653.45945
     -1689.561       -1316.541          48.000          35.000
  22379833.341    22379833.754    22379832.978     2192541.977 5    773272.931 6
      3523.369        2740.398          35.000          36.000
  20641656.965    20641656.719    20641657.577     3615066.54348    638083.63946
       381.850         297.544          52.000          41.000
  19614414.034    19614413.983    19614419.406      103126.016 8   1944383.149 8
      -880.271        -684.656          48.000          51.000
  21734894.278    21734893.214    21734901.647     2898489.345 7   2254420.686 7
     -3787.598       -2945.909          43.000          43.000
  20752276.188    20752275.448    20752283.290     1725182.758 8   2273929.275 7
      2487.040        1934.367          50.000          47.000
  24490227.931    24490228.549    24490229.517     2867898.95146   3814412.76342
     -3708.741       -2889.935          39.000          17.000
  20487500.859    20487501.141    20487500.817     2804975.48648   4201173.76947
      -602.041        -469.121          52.000          46.000
  22993977.962    22993976.679    22993984.429     1151748.126 7   3226011.506 6
      3680.794        2862.845          42.000          38.000
  22856718.282    22856717.566    22856725.402      590355.175 6   2789378.995 6
     -3379.391       -2628.410          37.000          41.000
  22400069.251    22400068.603    22400067.881      272644.716 7   3644171.812 5
      2886.056        2248.876          47.000          32.000
  22029565.099    22029565.648    22029565.558     2519981.96848   2127043.37445
     -3058.603       -2383.327          48.000          34.000
  25095114.092    25095112.497    25095109.235     1852295.750 6   2097013.279 1
      -922.351        -718.745          37.000           8.000
 09  5  1  0  2 30.0000000  0 15G10G12G31R06G24R21R11R22G05G29R13R20
                                G21G30G23
  23051187.327    23051187.279    23051188.181     3694321.120 6   2116093.007 3
       893.105         695.931          40.000          22.000
  24942949.633    24942948.482    24942950.179     1052699.91446   1473964.69842
     -3491.738       -2720.821          37.000          16.000
  22331488.368    22331489.088    22331487.679     4106576.47048   3363356.49245
     -1706.398       -1329.659          48.000          35.000
  22360108.457    22360107.519    22360106.472     2087094.750 5    691258.439 6
      3507.240        2727.846          35.000          36.000
  20639535.667    20639535.529    20639536.479     3603920.28248    629398.25046
       362.073         282.132          51.000          41.000
  19619393.323    19619393.023    19619398.629      129769.690 8   1965106.006 8
      -895.119        -696.207          49.000          51.000
  21756200.321    21756199.170    21756207.642     3012339.779 7   2342971.012 7
     -3801.532       -2956.749          44.000          44.000
  20738335.179    20738334.409    20738341.964     1650764.010 8   2216048.032 7
      2475.067        1925.052          50.000          47.000
  24511414.348    24511413.503    24511413.553     2979226.26946   3901161.31543
     -3712.251       -2892.672          39.000          18.000
  20490976.953    20490977.121    20490976.902     2823242.10248   4215407.48947
      -614.887        -479.133          52.000          45.000
  22973343.961    22973344.246    22973352.112     1041575.139 6   3140321.430 6
      3665.003        2850.547          40.000          38.000
  22875688.289    22875688.064    22875696.629      691799.337 6   2868279.992 6
     -3382.608       -2630.918          37.000          40.000
  22383625.047    22383624.279    22383623.506      186229.201 8   3576835.063 5
      2875.808        2240.885          48.000          33.000
  22047060.187    22047060.145    22047060.807     2611918.03248   2198681.85845
     -3069.595       -2391.895          48.000          33.000
  25100432.239    25100432.806    25100431.067     1880249.004 5   2118795.081
      -940.231        -732.696          34.000           3.000
 09  5  1  0  3  0.0000000  0 15G10G12G31R06G24R21R11R22G05G29R13R20
                                G21G30G23
  23046146.407    23046145.840    23046147.159     3667834.718 6   2095454.288 3
       872.989         680.237          39.000          22.000
  24962892.190    24962892.856    24962893.518     1157499.81345   1555627.00342
     -3494.635       -2723.080          35.000          14.000
  22341277.611    22341277.983    22341276.994     4158017.26148   3403440.21545
     -1722.638       -1342.313          48.000          35.000
  22340469.881    22340469.167    22340468.861     1982118.505 6    609610.258 6
      3491.564        2715.663          36.000          36.000
  20637524.674    20637524.275    20637525.471     3593351.40548    621162.76447
       342.853         267.159          52.000          42.000
  19624452.078    19624452.149    19624457.414      156841.722 8   1986162.032 8
      -909.351        -707.280          49.000          51.000
  21777578.500    21777579.154    21777587.494     3126589.625 7   2431832.003 7
     -3814.731       -2967.011          43.000          43.000
  20724457.828    20724456.956    20724465.323     1576688.493 8   2158433.752 7
      2463.623        1916.152          49.000          47.000
  24532614.507    24532614.894    24532615.416     3090644.43946   3987980.67343
     -3715.284       -2895.018          40.000          19.000
  20494523.384    20494523.486    20494523.021     2841877.81148   4229928.82247
      -627.167        -488.700          53.000          45.000
  22952800.890    22952799.310    22952807.224      931865.099 6   3054991.411 6
      3649.360        2838.391          40.000          39.000
  22894674.367    22894674.160    22894682.671      793323.104 6   2947242.925 6
     -3385.283       -2632.999          37.000          41.000
  22367236.008    22367235.723    22367235.003      100106.102 8   3509726.161 5
      2866.048        2233.290          48.000          33.000
  22064614.276    22064614.312    22064614.537     2704165.25947   2270562.80145
     -3079.911       -2399.932          47.000          34.000
  25105850.913                                     1908721.579 5
      -957.602                          32.000
 09  5  1  0  3 30.0000000  0 15G10G12G31R06G24R21R11R22G05G29R13R20
                                G21G30G23
  23041222.514    23041221.605    23041223.317     3641956.399 6   2075289.381 3
       852.514         664.288          37.000          23.000
  24982852.642    24982852.750    24982851.416     1262390.28346   1637359.86642
     -3497.802       -2725.602          36.000          12.000
  22351159.595    22351160.183    22351159.313     4209948.43347   3443906.04745
     -1739.113       -1355.148          47.000          35.000
  22320921.772    22320921.017    22320920.028     1877619.892 6    528333.581 6
      3475.369        2703.071          36.000          36.000
  20635623.981    20635623.747    20635624.838     3583363.87048    613380.28147
       323.333         251.946          52.000          42.000
  19629591.992    19629591.647    19629596.924      184345.035 8   2007553.497 8
      -923.831        -718.540          48.000          50.000
  21799033.750    21799034.152    21799042.741     3241238.886 7   2521003.626 7
     -3828.166       -2977.463          43.000          43.000
  20710646.432    20710645.907    20710653.852     1502960.927 8   2101090.093 7
      2451.850        1906.993          50.000          47.000
  24553835.397    24553835.529    24553834.501     3202155.54446   4074872.46243
     -3718.523       -2897.535          41.000          19.000
  20498140.464    20498140.602    20498140.308     2860886.20948   4244740.56347
      -639.751        -498.510          52.000          45.000
  22932343.217    22932342.902    22932350.907      822625.963 7   2970027.645 6
      3633.517        2826.072          42.000          39.000
  22913673.807    22913674.250    22913682.962      894928.767 6   3026269.507 6
     -3388.030       -2635.135          36.000          41.000
  22350904.262    22350903.971    22350903.114       14281.386 8   3442849.771 5
      2855.953        2225.423          48.000          33.000
  22082227.941    22082227.950    22082228.681     2796726.04248   2342688.07845
     -3090.484       -2408.179          48.000          33.000
  25111369.720                                     1937715.484 5
      -975.071                          33.000
 09  5  1  0  4  0.0000000  0 14G10G12G31R06G24R21R11R22G05G29R13R20
                                G21G30
  23036415.294    23036412.976    23036414.844     3616687.293 6   2055599.179 3
       832.243         648.496          40.000          22.000
  25002828.020    25002828.134    25002828.230     1367369.31646   1719161.78842
     -3500.645       -2727.796          36.000          12.000
  22361135.009    22361135.216    22361133.846     4262367.44247   3484752.01345
     -1755.305       -1367.776          47.000          35.000
  22301461.779    22301462.088    22301461.629     1773603.286 6    447431.791 6
      3459.141        2690.449          36.000          37.000
  20633834.133    20633833.785    20633834.556     3573956.36648    606049.76947
       304.021         236.897          52.000          42.000
  19634811.688    19634811.484    19634816.886      212277.673 8   2029278.880 8
      -938.111        -729.641          48.000          50.000
  21820564.308    21820563.528    21820571.653     3356282.736 7   2610482.156 7
     -3841.157       -2987.569          43.000          42.000
  20696900.174    20696899.452    20696907.309     1429581.573 8   2044017.276 7
      2440.297        1898.008          50.000          47.000
  24575073.106    24575071.958    24575072.240     3313757.27246   4161834.89843
     -3721.401       -2899.772          40.000          19.000
  20501828.178    20501828.352    20501828.115     2880265.96748   4259841.67147
      -652.038        -508.084          52.000          45.000
  22911974.973    22911974.799    22911982.048      713861.512 6   2885433.053 6
      3617.615        2813.694          41.000          39.000
  22932690.961    22932690.749    22932698.882      996614.660 6   3105358.498 6
     -3390.705       -2637.215          37.000          40.000
  22334629.420    22334628.556    22334627.852      -71244.536 8   3376206.217 5
      2845.994        2217.656          48.000          33.000
  22099900.706    22099900.766    22099901.321     2889597.95547   2415055.79545
     -3100.794       -2416.205          47.000          33.000
 09  5  1  0  4 30.0000000  0 15G10G12G31R06G24R21G02R11R22G05G29R13
                                R20G21G30
  23031723.407    23031722.037    23031724.030     3592036.984 6   2036391.196 3
       811.372         632.237          39.000          22.000
  25022824.069    25022823.458    25022824.276     1472444.50346   1801038.63342
     -3503.962       -2730.369          37.000          12.000
  22371204.471    22371204.525    22371202.978     4315281.12548   3525983.44545
     -1771.922       -1380.719          48.000          35.000
  22282096.784    22282096.008    22282096.506     1670083.031 5    366916.070 6
      3442.527        2677.518          35.000          37.000
  20632155.763    20632155.550    20632156.401     3565137.90348    599178.24647
       284.229         221.478          52.000          42.000
  19640113.694    19640113.248    19640118.602      240648.017 8   2051344.699 8
      -952.862        -741.118          48.000          50.000
  24980279.553                                     1248835.994 5
     -3428.043                          33.000
  21842167.259    21842167.121    21842174.709     3471726.049 7   2700271.389 7
     -3854.618       -2998.035          43.000          42.000
  20683220.443    20683219.691    20683228.124     1356560.478 8   1987223.097 7
      2428.170        1888.573          49.000          47.000
  24596327.456    24596327.375    24596328.934     3425456.86746   4248873.55243
     -3724.816       -2902.467          39.000          20.000
  20505588.346    20505588.483    20505588.169     2900025.25048   4275238.51247
      -664.852        -518.068          52.000          45.000
  22891697.170    22891696.957    22891705.048      605584.681 6   2801217.756 6
      3601.117        2800.864          39.000          38.000
  22951721.511    22951721.652    22951730.055     1098388.363 5   3184515.815 6
     -3393.775       -2639.606          35.000          38.000
  22318413.346    22318412.551    22318411.655     -156460.437 8   3309804.234 5
      2835.430        2209.429          48.000          33.000
  22117634.120    22117634.713    22117634.833     2982787.98047   2487671.38645
     -3111.496       -2424.541          47.000          33.000
