     3.03           OBSERVATION DATA    M                   RINEX VERSION / TYPE
edited                                  20191216 135342 UTC PGM / RUN BY / DATE 
MANUALLY EDITED RINEX FILE ONLY FOR TEST PURPOSES           COMMENT             
XYZ9                                                        MARKER NAME         
9999                                                        MARKER NUMBER       
SPACEBORNE                                                  MARKER TYPE         
NOBODY              OREKIT                                  OBSERVER / AGENCY   
9876543             MY_TYPE             0.0.1               REC # / TYPE / VERS 
17                  MY_ANTENNA      ABC                     ANT # / TYPE        
        0.0083        0.0000        0.0000                  ANTENNA: DELTA H/E/N
        1.1111        2.2222        3.3333                  ANTENNA: DELTA X/Y/Z
E C1C   0.1111        0.2222        0.3333                  ANTENNA: PHASECENTER
        9.9999        8.8888        7.7777                  ANTENNA: B.SIGHT XYZ
        0.1010                                              ANTENNA: ZERODIR AZI
        6.6666        5.5555        4.4444                  ANTENNA: ZERODIR XYZ
        0.1455       -0.3421        0.0024                  CENTER OF MASS: XYZ 
G   14 C1C L1C S1C C1W S1W C2W L2W S2W C2L L2L S2L C5Q L5Q  SYS / # / OBS TYPES 
       S5Q                                                  SYS / # / OBS TYPES 
E   15 C1C L1C S1C C6C L6C S6C C5Q L5Q S5Q C7Q L7Q S7Q C8Q  SYS / # / OBS TYPES 
       L8Q S8Q                                              SYS / # / OBS TYPES 
S    6 C1C L1C S1C C5I L5I S5I                              SYS / # / OBS TYPES 
R    6 C1C L1C S1C C2C L2C S2C                              SYS / # / OBS TYPES 
C    9 C2I L2I S2I C7I L7I S7I C6I L6I S6I                  SYS / # / OBS TYPES 
J    9 C1C L1C S1C C2L L2L S2L C5Q L5Q S5Q                  SYS / # / OBS TYPES 
SEPTENTRIO RECEIVERS OUTPUT ALIGNED CARRIER PHASES.         COMMENT             
NO FURTHER PHASE SHIFT APPLIED IN THE RINEX ENCODER.        COMMENT             
E 1000                                                      SYS / SCALE FACTOR  
G L1C                                                       SYS / PHASE SHIFT   
G L2W                                                       SYS / PHASE SHIFT   
G L2L  0.00000                                              SYS / PHASE SHIFT   
G L5Q  0.00000                                              SYS / PHASE SHIFT   
E L1C  0.00000                                              SYS / PHASE SHIFT   
E L6C  0.00000                                              SYS / PHASE SHIFT   
E L5Q  0.00000                                              SYS / PHASE SHIFT   
E L7Q  0.00000                                              SYS / PHASE SHIFT   
E L8Q  0.00000                                              SYS / PHASE SHIFT   
S L1C                                                       SYS / PHASE SHIFT   
S L5I                                                       SYS / PHASE SHIFT   
R L1C                                                       SYS / PHASE SHIFT   
R L2C                                                       SYS / PHASE SHIFT   
C L2I                                                       SYS / PHASE SHIFT   
C L7I                                                       SYS / PHASE SHIFT   
C L6I                                                       SYS / PHASE SHIFT   
J L1C                                                       SYS / PHASE SHIFT   
J L2L  0.00000                                              SYS / PHASE SHIFT   
J L5Q  0.00000                                              SYS / PHASE SHIFT   
    15.000                                                  INTERVAL            
  2018     1    29     0     0    0.0000000     GPS         TIME OF FIRST OBS   
  2018     1    29    23    59   45.0000000     GPS         TIME OF LAST OBS    
    87                                                      # OF SATELLITES     
 C1C    0.000 C2C    0.000                                  GLONASS COD/PHS/BIS 
DBHZ                                                        SIGNAL STRENGTH UNIT
 25 R01  1 R02 -4 R03  5 R04  6 R05  1 R06 -4 R07  5 R08  6 GLONASS SLOT / FRQ #
    R09 -2 R10 -7 R11  0 R12 -1 R13 -2 R14 -7 R15  0 R16 -1 GLONASS SLOT / FRQ #
    R17  4 R18 -3 R19  3 R20  2 R21  4 R22 -3 R23  3 R24  2 GLONASS SLOT / FRQ #
    R26 -5                                                  GLONASS SLOT / FRQ #
                                                            END OF HEADER       
> 2018 01 29 00 00  0.0000000  0 36
G30  20422534.056 8 107321166.49408        53.000    20422533.533 8        51.750    20422534.413 8  83626906.29908        51.750    20422534.856 8  83626908.30708        51.250    20422535.334 9  80142461.09109        56.250
G05  21717714.712 8 114127358.99508        52.000    21717714.565 7        45.000    21717712.816 7  88930411.28507        45.000    21717713.258 7  88930402.29107        45.500
R10  19186904.493 9 102277032.32809        54.500    19186910.879 8  79548847.90908        49.250
E02  27775699.521 5 145962275.26405        35.500    27775701.324 6 118475907.21706        40.750    27775703.461 6 108997836.70306        40.000    27775699.573 6 111841247.42906        40.000    27775701.484 7 110419547.14107        43.000
E26  25381275.310 6 133379507.32706        40.250    25381275.964 7 108262586.47607        42.750    25381279.527 6  99601594.88606        40.250    25381276.046 7 102199885.47007        42.000    25381277.577 7 100900739.75207        44.250
G07  20640130.785 8 108464656.49808        53.750    20640130.437 8        49.500    20640128.392 8  84517907.34808        49.500    20640128.576 8  84517907.35008        48.500
G27  23059940.411 7 121180839.66907        42.750    23059939.946 5        31.750    23059940.607 5  94426597.99805        31.750    23059941.229 6  94426640.99606        41.000    23059941.161 7  90492199.60407        45.750
E05  26097272.935 7 137142090.98107        42.500    26097272.275 7 111316627.21707        45.750    26097277.198 7 102411310.83007        44.250    26097273.690 7 105082892.67007        45.750    26097275.099 8 103747111.32408        48.000
R08  20330646.818 8 108869681.61308        52.500    20330650.337 8  84676450.23208        50.750
G16  24994790.605 6 131348541.36106        36.000    24994789.912 2        15.500    24994789.031 2 102349512.93902        15.500
R17  23594956.242 7 126261386.94107        42.000    23594960.224 6  98203323.46406        41.250
R01  19689077.010 8 105249384.57008        53.250    19689082.436 7  81860690.80507        47.750
S38  40430827.124 6 212465369.90906        36.750    40430816.541 6 158659674.86906        39.750
C04  41010668.079 5                        33.750    41010665.465 5 165132954.35705        34.250    41010667.326 5                        32.750
G28  23299511.198 6 122439775.13906        41.000    23299510.394 4        26.000    23299509.494 4  95407624.41404        26.000
G20  23259768.968 6 122230916.03206        40.000    23259767.931 4        26.250    23259766.768 4  95244848.61004        26.250
C06  39959597.220 6 208080125.01906        39.000    39959594.105 7 160900733.40107        42.500    39959595.278 7 169082134.09207        42.500
R09  21292233.032 8 113699399.08208        49.000    21292236.189 8  88432852.80708        48.250
E03  23778470.989 8 124956721.78308        52.250    23778470.583 9 101425906.52409        56.250    23778474.160 8  93311853.03408        53.000    23778470.849 9  95746060.11609        55.500    23778472.214 9  94528954.64909        57.250
S35  39799157.547 6 209145989.29906        38.000    39799139.782 6 156180403.81006        38.750
G21  24993422.299 6 131341325.65106        38.500    24993421.280 3        21.500    24993419.960 3 102343879.30003        21.500
R19  23038761.338 7 123241845.07307        43.500    23038764.530 7  95854774.35807        42.000
S31  40139549.624 6 210934694.29506        39.750    40139525.509 6 157516149.89006        40.500
R07  24187014.621 6 129474961.86606        38.750    24187021.435 5 100702768.50405        35.250
E24  22090975.674 8 116088885.37808        51.000    22090968.248 9  94227967.36809        54.750    22090989.439 8  86689822.51608        51.500    22090985.904 8  88951288.40308        53.250    22090987.474 9  87820566.53409        55.500
G08  23662809.741 6 124348963.05306        40.250    23662809.330 4        26.250    23662810.769 4  96895285.52004        26.250    23662811.440 6  96895289.53406        39.000    23662810.719 7  92857982.13207        44.000
E08  23499584.944 7 123491166.97507        46.000    23499586.510 8 100236347.81908        49.750    23499586.518 7  92217443.67107        47.000    23499583.185 8  94623098.80108        49.000    23499584.612 8  93420271.31108        51.000
S33  39868027.721 6 209507176.50306        40.000    39868082.566 6 156451477.22806        41.000
G09  23158087.720 6 121696574.09306        41.000    23158087.381 4        29.250    23158088.493 4  94828502.22204        29.250    23158088.372 6  94828502.22806        40.000    23158089.512 7  90877317.64407        44.500
R18  22010449.446 8 117493292.61408        48.000    22010453.438 7  91383703.63007        45.000
G13  22970872.763 7 120712766.61207        42.750    22970872.433 4        29.500    22970870.867 4  94061885.39404        29.500
R11  21857212.519 8 116798367.17108        48.750    21857217.300 7  90843180.03607        46.750
R02  23450589.216 7 125136848.16207        44.500    23450592.876 6  97328656.42506        37.750
C13  41170100.678 6 214383499.57706        36.750    41170106.341 6 165774935.23106        38.250    41170104.343 6 174204170.62206        37.500
J01  41183385.887 7 216420157.84407        44.000    41183384.795 6 168639076.82306        41.250    41183387.755 7 161612465.17707        46.250
C12  25309538.166 6 131793428.10406        40.000    25309537.305 7 101911037.34707        45.250    25309537.717 7 107092964.19807        45.250