     2.20           OBSERVATION DATA    GPS                 RINEX VERSION / TYPE
BJFMTLcsr           UTCSR               2007-09-30 05:30:06 PGM / RUN BY / DATE
ICESat                                                      MARKER NAME
L11                                                         MARKER NUMBER
SPACEBORNE                                                  MARKER TYPE
                    NASA/GSFC                               OBSERVER / AGENCY
FM1-02685           BLACKJACK           BUILD 31            REC # / TYPE / VERS
ANT1-257206         CHOKERING                               ANT # / TYPE
Center of mass location changes with orbit maneuvers        COMMENT
Check http://www.csr.utexas.edu/glas/podinfo                COMMENT
     1     1     0                                          WAVELENGTH FACT L1/2
     9    L1    L2    P1    P2    C1    LA    S1    S2    SA# / TYPES OF OBSERV
    10.000                                                  INTERVAL
  2007     9    29     0     0    0.0000000     GPS         TIME OF FIRST OBS
                                                            END OF HEADER
 07  9 29  0  0  0.0000000  0  7  1  5  9 12 14 22 30                           
    467614.70106    364374.76806  24554538.88000  24554544.98800  24554539.18900
    467614.71300        30.00000        40.00000       142.00000
  -9534398.75908  -7429403.18808  20429237.66700  20429243.48400  20429238.30300
  -9534398.75900       359.00000       353.00000       659.00000
   8159697.08906   6358202.92807  23305299.04600  23305303.73300  23305298.21400
   8159697.08800        46.00000        63.00000       203.00000
  11013515.41508   8581958.92308  22201472.20200  22201476.86900  22201472.33900
  11013515.41500       171.00000       205.00000       443.00000
 -14800471.86108 -11532836.37808  21466044.52200  21466049.85800  21466044.96800
 -14800471.86100       183.00000       197.00000       446.00000
  -7326510.50108  -5823497.87408  21168675.13800  21168678.78200  21168675.41500
  -7326510.50100       231.00000       336.00000       561.00000
   1370942.80909   1068266.89609  19786351.71000  19786356.76200  19786351.44800
   1370942.80900       631.00000       630.00000       918.00000
 07  9 29  0  0 10.0000000  0  7  1  5  9 12 14 22 30                           
    718139.51606    559588.84106  24602211.63100  24602217.13200  24602211.76500
    718139.51800        27.00000        37.00000       137.00000
  -9259511.99708  -7215205.75408  20481546.80900  20481552.78600  20481547.58100
  -9259511.99700       336.00000       344.00000       638.00000
   8380620.83906   6530351.21007  23347337.72600  23347344.31500  23347338.64300
   8380620.84100        42.00000        59.00000       193.00000
  11358134.37908   8850493.12108  22267051.34000  22267055.60800  22267051.01200
  11358134.38000       162.00000       194.00000       429.00000
 -14576134.12808 -11358027.80108  21508734.49900  21508739.99100  21508735.08300
 -14576134.12800       171.00000       190.00000       433.00000
  -7436538.43908  -5909233.94208  21147737.69200  21147741.11400  21147737.79100
  -7436538.43900       232.00000       343.00000       559.00000
   1540117.19909   1200091.06509  19818544.54200  19818549.62300  19818544.28700
   1540117.19900       623.00000       626.00000       914.00000
 07  9 29  0  0 20.0000000  0  7  1  5  9 12 14 22 30                           
    969995.69306    755840.31606  24650140.37600  24650144.42000  24650139.38000
    969995.68900        26.00000        37.00000       131.00000
  -8979620.97308  -6997108.89608  20534808.30600  20534814.32300  20534808.98800
  -8979620.97300       316.00000       330.00000       618.00000
   8603185.53706   6703778.14707  23389691.62800  23389697.43800  23389691.51700
   8603185.53900        40.00000        61.00000       180.00000
  11706066.51208   9121609.01108  22333260.48900  22333265.10900  22333260.48600
  11706066.51200       152.00000       183.00000       412.00000
 -14348633.94308 -11180754.97308  21552026.68800  21552031.71800  21552026.93400
 -14348633.94400       163.00000       185.00000       422.00000
  -7543397.60708  -5992500.83808  21127403.00500  21127406.66700  21127403.17700
  -7543397.60700       232.00000       343.00000       559.00000
   1715641.47909   1336863.19909  19851945.64200  19851950.77700  19851945.48900
   1715641.47900       614.00000       622.00000       906.00000
 07  9 29  0  0 30.0000000  0  7  1  5  9 12 14 22 30                           
   1223154.61006    953106.92306  24698311.59300  24698317.79900  24698313.34500
   1223154.61800        26.00000        34.00000       126.00000
  -8694806.92208  -6775175.91708  20589006.64200  20589012.70100  20589007.36300
  -8694806.92300       297.00000       319.00000       594.00000
   8827346.02306   6878448.56007  23432347.20300  23432353.67800  23432347.51500
   8827346.02900        38.00000        58.00000       168.00000
  12057228.48808   9395241.65408  22400084.55500  22400088.94900  22400084.29200
  12057228.48800       137.00000       173.00000       393.00000
 -14118011.22408 -11001049.00608  21595912.91600  21595917.95600  21595913.18000
 -14118011.22400       159.00000       177.00000       413.00000
  -7647064.97908  -6073280.62108  21107675.73200  21107679.48900  21107675.90100
  -7647064.97900       230.00000       346.00000       560.00000
   1897457.42109   1478537.92709  19886544.19300  19886549.28400  19886543.99700
   1897457.42100       608.00000       618.00000       900.00000
