     2.11           OBSERVATION DATA    G (GPS)             RINEX VERSION / TYPE
teqc  2016Nov7      root                20180130 10:38:06UTCPGM / RUN BY / DATE
Linux 2.4.21-27.ELsmp|Opteron|gcc|Linux x86_64|=+           COMMENT
teqc  2016Nov7      cors-adm            20170215 19:04:51UTCCOMMENT
Solaris x86 5.10|AMD64|cc SC5.8 -xarch=amd64|=+|=+          COMMENT
teqc  2016Nov7      cors-adm            20170112 00:19:30UTCCOMMENT
     2.10           OBSERVATION DATA    G (GPS)             COMMENT
NSTB2RINEX 2.06     NOAA/NOS/NGS/CORS   20170112 00:19:14UTCCOMMENT
Forced Modulo Decimation to 30 seconds                      COMMENT
JNU1                                                        MARKER NAME
Nathan Vary         FAA                                     OBSERVER / AGENCY
82C1                NOV WAASGII                             REC # / TYPE / VERS
                    MPL_WAAS_2225NW NONE                    ANT # / TYPE
 -2354253.7610 -2388550.5590  5407042.5010                  APPROX POSITION XYZ
        0.0000        0.0000        0.0000                  ANTENNA: DELTA H/E/N
     1     1                                                WAVELENGTH FACT L1/2
     7    L1    L2    P1    P2    C1    S1    S2            # / TYPES OF OBSERV
    30.0000                                                 INTERVAL
teqc.w windowed: start @ 2017 Jan 11 00:00:00.000           COMMENT
teqc.w windowed:  end  @ 2017 Jan 11 16:00:00.000           COMMENT
teqc.w edited: all GLONASS satellites excluded              COMMENT
teqc.w edited: all SBAS satellites excluded                 COMMENT
teqc.w edited: all Galileo satellites excluded              COMMENT
teqc.w edited: all Beidou satellites excluded               COMMENT
teqc.w edited: all QZSS satellites excluded                 COMMENT
  2017     1    11     0     0    0.0000000     GPS         TIME OF FIRST OBS
    18                                                      LEAP SECONDS
                                                            END OF HEADER
 17  1 11  0  0  0.0000000  0 11G02G03G05G06G07G09G16G23G26G29G30          -.03
 124458652.8864   96980755.4354                   23683694.8544   23683692.1224
        42.6004         42.1004
 131982873.7534  102843794.7144                   25115514.0794   25115508.1234
        39.4004         38.8004
 129619506.3294  101002209.8154                   24665773.0054   24665770.2724
        38.7004         40.9004
 126224550.1644   98356786.1104                   24019739.3224   24019735.1024
        42.7004         42.3004
 115026454.6524   89631019.3604                   21888802.8574   21888800.8194
        50.8004         46.1004
 106003958.4524   82600495.5464                   20171882.8714   20171878.2524
        56.1004         52.0004
 113490185.9274   88433917.0564                   21596458.9504   21596457.7734
        51.1004         44.6004
 111339364.3884   86757945.5044                   21187170.2144   21187169.4384
        53.0004         45.8004
 121135930.2484   94391648.1974                   23051399.5724   23051393.0874
        46.5004         44.2004
 129338969.1434  100783625.5684                   24612392.4224   24612387.2764
        40.1004         38.5004
 130131522.0174  101401192.1594                   24763209.4134   24763203.7574
        39.4004         35.9004
 17  1 11  0  0 30.0000000  0 11G02G03G05G06G07G09G16G23G26G29G30          -.08
 124483092.6724   96999799.4394                   23688345.6354   23688342.3614
        41.9004         41.4004
 132101477.3334  102936213.0084                   25138084.0184   25138078.5774
        37.3004         40.1004
 129516030.0244  100921578.9684                   24646083.4784   24646078.9064
        40.2004         41.3004
 126311635.6564   98424644.9274                   24036312.3354   24036304.9944
        41.8004         42.3004
 114946098.8044   89568404.4034                   21873511.3694   21873509.7434
        51.0004         45.9004
 105989432.2304   82589176.4114                   20169118.4044   20169113.7514
        56.0004         52.0004
 113491781.9854   88435160.7454                   21596762.6434   21596760.2554
        50.5004         44.6004
 111396591.7774   86802538.2724                   21198060.5214   21198059.9574
        53.2004         45.8004
 121196865.7074   94439130.3864                   23062995.9014   23062989.9224
        46.8004         43.8004
 129376089.3524  100812550.3914                   24619455.6204   24619449.7214
        38.9004         38.7004
 130020027.2774  101314313.2304                   24741993.5394   24741984.5664
        36.8004         37.8004
 17  1 11  0  1  0.0000000  0 11G02G03G05G06G07G09G16G23G26G29G30
 124508045.9364   97019243.5364                   23693093.2954   23693092.1034
        43.6004         41.2004
 132220106.7154  103028651.4894                   25160656.9594   25160652.8834
        35.7004         37.0004
 129412772.7054  100841118.7224                   24626434.1504   24626429.9794
        38.5004         40.3004
 126399015.5934   98492733.1724                   24052940.4844   24052934.0734
        43.0004         42.1004
 114866053.8734   89506031.7314                   21858279.2824   21858276.8914
        50.6004         46.4004
 105975381.0734   82578227.4524                   20166444.3244   20166439.6894
        56.1004         52.1004
 113494063.2534   88436938.3514                   21597196.1724   21597194.2314
        50.6004         44.6004
 111454205.2314   86847431.8664                   21209023.5954   21209023.6354
        53.6004         45.5004
 121258309.9734   94487009.0564                   23074687.7844   23074682.0604
        46.9004         44.4004
 129413761.5984  100841905.5064                   24626624.0204   24626621.2734
        39.3004         39.3004
 129908611.2174  101227495.5784                   24720790.9854   24720785.0144
        41.2004         37.9004
 17  1 11  0  1 30.0000000  0 11G02G03G05G06G07G09G16G23G26G29G30
 124533512.0164   97039087.2124                   23697940.1034   23697938.9184
        44.4004         41.0004
 132338759.8144  103121108.4594                   25183237.6994   25183231.7644
        38.8004         37.0004
 129309736.9244  100760831.1214                   24606827.1314   24606824.1734
        38.6004         40.6004
 126486687.1374   98561048.6164                   24069622.4924   24069616.6034
        41.3004         42.4004
 114786321.5634   89443902.6774                   21843107.3694   21843104.9174
        50.5004         46.4004
 105961805.8184   82567649.3204                   20163860.9234   20163856.8494
        56.0004         51.8004
 113497029.6834   88439249.8674                   21597760.8004   21597758.6744
        50.3004         44.9004
 111512204.1034   86892625.7934                   21220059.8234   21220060.5054
        53.2004         44.8004
 121320261.1184   94535282.6844                   23086476.9444   23086470.6104
        46.6004         44.4004
 129451984.7944  100871689.7824                   24633896.3444   24633892.6374
        38.1004         40.4004
 129797275.6784  101140740.6534                   24699604.9804   24699598.9714
        41.6004         38.0004