     3.02           OBSERVATION DATA    M (MIXED)           RINEX VERSION / TYPE
NetR9 5.03          Receiver Operator   11-JAN-16 00:00:00  PGM / RUN BY / DATE
RDLT                                                        MARKER NAME
RDLT                                                        MARKER NUMBER
GEODETIC                                                    MARKER TYPE         
OBS                 AGENCY                                  OBSERVER / AGENCY   
5035K69749          Trimble NetR9       5.03                REC # / TYPE / VERS
1912118081          TRM57971.00     NONE                    ANT # / TYPE
  2104228.6921 -5642017.3992  2095406.0835                  APPROX POSITION XYZ
        0.0001        0.0000        0.0000                  ANTENNA: DELTA H/E/N
G   12 C1C L1C S1C C2W L2W S2W C2X L2X S2X C5X L5X S5X      SYS / # / OBS TYPES
R   12 C1C L1C S1C C1P L1P S1P C2C L2C S2C C2P L2P S2P      SYS / # / OBS TYPES
E   12 C1X L1X S1X C5X L5X S5X C7X L7X S7X C8X L8X S8X      SYS / # / OBS TYPES
C    9 C1I L1I S1I C7I L7I S7I C6I L6I S6I                  SYS / # / OBS TYPES
    15.000                                                  INTERVAL
G L2X -0.25000                                              SYS / PHASE SHIFT   
R L1P  0.25000                                              SYS / PHASE SHIFT   
R L2C -0.25000                                              SYS / PHASE SHIFT   
GIOVE-A if present is mapped to satellite ID 51             COMMENT             
GIOVE-B if present is mapped to satellite ID 52             COMMENT             
DBHZ                                                        SIGNAL STRENGTH UNIT
                                                            END OF HEADER       
> 2016  1 11  0  0  0.0000000  0 26       0.000000000000
R10  23544632.969 6 125506152.806 6        40.400    23544630.660 6 125506177.799 6        38.200    23544639.055 5  97615985.468 5        33.900    23544639.875 5  97615969.480 5        33.200
G27  22399181.883 7 117708573.580 7        42.600    22399189.590 5  91721088.991 5        34.400    22399189.578 7  91721082.998 7        45.700    22399187.391 7  87899374.902 7        47.600
R18  22459713.383 7 119891661.142 7        44.100    22459712.777 7 119891647.122 7        43.200    22459716.922 6  93249167.486 6        41.400    22459717.043 6  93249171.479 6        41.600
G26  21002873.820 8 110371028.142 8        49.700    21002880.418 6  86003466.709 6        40.200    21002880.090 8  86003474.708 8        48.300    21002878.551 8  82420003.098 8        53.200
G16  20350144.750 8 106940828.293 8        49.800    20350148.430 6  83330612.134 6        39.600
R07  20830975.727 7 111510119.514 7        47.800    20830975.551 7 111509863.515 7        46.600    20830979.195 7  86729922.894 7        46.300    20830978.676 7  86729929.892 7        45.600
G14  22921945.594 6 120455516.003 6        41.300    22921950.918 4  93861685.861 4        26.400
R05  23430711.711 5 125250603.179 5        34.400    23430712.027 5 125250587.198 5        34.600    23430719.555 6  97417139.009 6        37.000    23430719.219 5  97417153.011 5        34.800
R09  21444793.883 7 114514115.091 7        42.500    21444793.320 6 114514102.117 6        40.900    21444796.418 5  89066599.089 5        34.400    21444795.195 5  89066589.095 5        33.600
G03  22823830.469 7 119939966.415 7        45.600    22823837.336 5  93459853.737 5        30.800    22823837.398 7  93459852.747 7        44.200    22823837.645 7  89565695.138 7        47.600
E14  19173395.055 7 100756875.857 7        45.100    19173407.766 7  75240567.283 7        47.300    19173407.156 7  77203363.242 7        46.100    19173407.398 8  76221970.869 8        52.200
E30  28191538.719 5 148147536.609 5        35.800    28191544.449 6 110629668.765 6        39.800    28191542.387 6 113515659.769 6        37.400    28191544.000 7 112072668.374 7        43.800
E24  27394988.180 7 143961787.735 7        43.000    27395002.262 6 107504079.295 6        40.200    27395002.543 6 110308516.760 6        40.600    27395003.180 7 108906207.636 7        45.600
E12  28549417.164 6 150028195.176 6        36.800    28549418.230 6 112034046.171 6        37.000    28549417.949 5 114956671.071 5        35.800    28549418.559 6 113495360.723 6        41.900
E11  26195806.102 7 137660018.204 7        42.800    26195805.918 6 102798202.535 6        41.100    26195805.262 6 105479883.186 6        40.700    26195805.965 7 104139046.461 7        46.200
R19  21754879.125 7 116374037.990 7        43.700    21754878.410 7 116374142.011 7        43.200    21754881.102 6  90513346.912 6        41.100    21754880.621 6  90513347.913 6        41.400
G08  24653272.297 6 129553766.670 6        39.100    24653281.848 3 100951111.072 3        19.300    24653282.684 6 100951113.068 6        37.300    24653281.391 7  96744819.278 7        43.300
G23  24165410.805 7 126990121.981 7        43.900    24165412.516 3  98953344.619 3        23.200
G31  22537994.766 7 118437881.004 7        45.800    22537998.863 5  92289523.605 5        33.600    22537998.477 7  92289525.601 7        43.500
R16  22214341.023 7 118665135.521 7        42.500    22214340.969 6 118665156.536 6        41.300    22214345.293 6  92295230.311 6        41.300    22214345.281 6  92295230.299 6        40.600
G32  22246710.531 7 116907229.731 7        46.800    22246715.789 5  91096640.622 5        33.800
G29  24862375.516 6 130652886.557 6        39.200    24862380.328 3 101807535.937 3        21.300    24862379.980 6 101807546.945 6        37.300
G22  24093232.633 6 126610779.502 6        39.900    24093238.410 3  98657779.269 3        22.000
R06  20075472.813 8 107126646.309 8        51.100    20075471.590 8 107126603.318 8        49.500    20075473.988 7  83320762.575 7        46.800    20075474.137 7  83320741.569 7        45.800
C11  23697750.031 7 123400577.080 7        45.600    23697747.023 7  95421307.577 7        45.100    23697740.434 8 100273172.763 8        48.000
C12  27062482.750 5 140921544.15415        32.400    27062480.508 5                        31.100    27062473.086 5                        35.500
> 2016  1 11  0  0 15.0000000  0 25       0.000000000000
R10  23541822.883 6 125491179.667 6        39.900    23541821.980 6 125491204.714 6        38.600    23541830.535 5  97604339.702 5        33.800    23541830.195 5  97604323.698 5        32.500
G27  22390089.813 7 117660791.303 7        43.700    22390097.008 5  91683856.088 5        34.200    22390097.258 7  91683850.084 7        45.700    22390094.574 8  87863693.364 8        48.200
R18  22461330.953 7 119900293.784 7        44.500    22461330.230 7 119900279.790 7        43.200    22461333.328 6  93255881.752 6        40.700    22461333.949 6  93255885.746 6        40.400
G26  21007765.734 8 110396735.006 8        48.100    21007772.539 6  86023498.042 6        40.000    21007772.422 8  86023506.041 8        48.800    21007770.496 8  82439199.789 8        53.200
G16  20350618.766 8 106943319.813 8        49.800    20350622.262 6  83332553.587 6        39.900
R07  20826810.797 8 111487820.536 8        48.300    20826810.035 7 111487564.567 7        46.700    20826813.758 7  86712579.234 7        45.600    20826813.270 7  86712586.247 7        45.600
G14  22929588.117 6 120495679.654 6        41.100    22929593.246 4  93892982.204 4        26.900
R05  23442718.047 5 125314775.373 5        35.100    23442716.484 5 125314759.352 5        34.600    23442724.129 6  97467050.427 6        37.000    23442724.004 5  97467064.444 5        35.600
R09  21445428.398 7 114517507.148 7        42.100    21445428.305 6 114517494.145 6        40.800    21445430.496 5  89069237.329 5        32.800    21445430.223 5  89069227.342 5        32.700
G03  22824353.281 7 119942712.783 7        44.800    22824359.664 5  93461993.762 5        30.200    22824360.504 7  93461992.763 7        42.500    22824360.266 7  89567745.983 7        47.500
E14  19179711.938 7 100790074.692 7        44.900    19179724.559 7  75265358.616 7        47.200    19179724.277 7  77228801.308 7        45.600    19179724.961 8  76247085.572 8        52.000
E30  28188658.539 5 148132401.860 5        35.000    28188663.875 6 110618366.880 6        38.300    28188663.313 6 113504063.049 6        37.600    28188664.043 7 112061219.072 7        43.200
E24  27398635.359 7 143980954.498 7        42.400    27398650.797 6 107518392.117 6        41.000    27398650.703 6 110323202.975 6        40.900    27398650.543 7 108920707.147 7        46.100
E12  28551796.906 6 150040700.172 6        36.800    28551797.871 6 112043384.301 6        36.000    28551798.059 6 114966252.791 6        36.200    28551797.938 6 113504820.648 6        41.800
E11  26193471.602 7 137647749.667 7        42.700    26193471.422 6 102789040.978 6        41.200    26193471.188 6 105470482.629 6        40.900    26193471.313 7 104129765.404 7        46.400
R19  21747571.195 7 116334944.874 7        44.700    21747569.777 7 116335048.882 7        43.800    21747573.406 7  90482941.173 7        42.200    21747572.980 6  90482942.168 6        41.800
G08  24643301.820 6 129501375.983 6        38.200    24643311.973 3 100910287.287 3        18.300    24643312.762 6 100910289.320 6        37.900    24643311.574 7  96705696.559 7        43.100
G23  24155592.938 7 126938527.803 7        43.900    24155594.582 3  98913141.378 3        22.300
G31  22540182.320 7 118449375.793 7        45.100    22540186.367 5  92298480.581 5        33.500    22540186.055 7  92298482.585 7        43.400
R16  22218050.789 7 118684949.165 7        42.100    22218049.680 6 118684970.174 6        41.600    22218054.215 6  92310640.920 6        41.600    22218054.367 6  92310640.917 6        40.200
G32  22251707.039 7 116933488.548 7        45.300    22251712.820 5  91117102.036 5        34.200
G29  24869774.320 6 130691766.672 6        39.500    24869778.559 3 101837832.142 3        20.100    24869778.586 6 101837843.157 6        36.300
G22  24101437.422 6 126653896.112 6        39.100    24101442.555 3  98691376.495 3        21.700
R06  20082117.195 8 107162099.573 8        50.100    20082115.621 8 107162056.568 8        49.200    20082118.176 7  83348337.306 7        47.600    20082118.441 7  83348316.313 7        45.700
C11  23697974.297 7 123401746.690 7        45.300    23697971.738 7  95422212.006 7        45.200    23697965.219 7 100274123.185 7        47.900
