     2.11           OBSERVATION DATA    G (GPS)             RINEX VERSION / TYPE
teqc  2016Nov7      root                20180417 16:17:35UTCPGM / RUN BY / DATE
Linux 2.4.21-27.ELsmp|Opteron|gcc|Linux x86_64|=+           COMMENT
     2.11           OBSERVATION DATA    G (GPS)             COMMENT
teqc  2015Nov6      CORS-ADM Account    20160214 00:53:28UTCCOMMENT
Solaris x86 5.10|AMD64|cc SC5.8 -xarch=amd64|=+|=+          COMMENT
teqc  2015Nov6      CORS-ADM Account    20160214 00:53:08UTCCOMMENT
teqc  2015Nov6      NOAA/NOS/NGS/CORS   20160213 01:14:44UTCCOMMENT
Spider V5.3.1.6235  MIDOT               2016 02 13 01:00    COMMENT
BIT 2 OF LLI FLAGS DATA COLLECTED UNDER A/S CONDITION       COMMENT
SNR is mapped to RINEX snr flag value [1-9]                 COMMENT
LX:    >= 25dBHz -> 1; 26-27dBHz -> 2; 28-31dBHz -> 3       COMMENT
       32-35dBHz -> 4; 36-38dBHz -> 5; 39-41dBHz -> 6       COMMENT
       42-44dBHz -> 7; 45-48dBHz -> 8; >= 49dBHz -> 9       COMMENT
teqc edited: all SBAS satellites excluded                   COMMENT
teqc edited: all Compass satellites excluded                COMMENT
teqc edited: all QZSS satellites excluded                   COMMENT
Forced Modulo Decimation to 30 seconds                      COMMENT
BRIG                                                        MARKER NAME
49613S001                                                   MARKER NUMBER
Shawn Roy           MIDT                                    OBSERVER / AGENCY
458402              LEICA GRX1200PRO    9.20/6.404          REC # / TYPE / VERS
659                 LEIAT504GG      LEIS                    ANT # / TYPE
   512039.3140 -4680416.2930  4288537.5030                  APPROX POSITION XYZ
        0.0000        0.0000        0.0000                  ANTENNA: DELTA H/E/N
     1     1                                                WAVELENGTH FACT L1/2
     8    L1    L2    C1    C2    P1    P2    S1    S2      # / TYPES OF OBSERV
    30.0000                                                 INTERVAL
teqc.w windowed: start @ 2016 Feb 13 00:00:00.000           COMMENT
teqc.w windowed:  end  @ 2016 Feb 13 05:00:00.000           COMMENT
teqc.w edited: all GLONASS satellites excluded              COMMENT
  2016     2    13     1    30    0.0000000     GPS         TIME OF FIRST OBS
                                                            END OF HEADER
 16  2 13  1 30  0.0000000  0 10G01G07G08G09G11G16G23G27G28G30
                                  24828175.860
  24828175.100          36.650          33.050
 106753939.578 9  83184876.82249  20314593.420
  20314587.240          51.000          51.100
 107514709.778 9  83777742.42849  20459350.660
  20459347.160          51.750          50.650
 117879509.185 8  91854166.73047  22431714.760
  22431711.460          47.950          44.950
 120461292.740 8  93865942.22145  22923016.460
  22923010.760          46.000          38.750
 128977539.679 7 100501953.73843  24543611.420
  24543604.840          42.100          31.700
 126765988.970 7  98778675.33844  24122759.040
  24122752.940          43.050          32.250
 114717077.197 9  89389974.76348  21829912.120
  21829908.260          49.600          47.050
 126812636.367 7  98815022.38044  24131637.960
  24131632.740          43.550          34.500
 115726077.424 9  90176173.48948  22021930.780
  22021927.060          49.750          45.850
 16  2 13  1 30 30.0000000  0 10G01G07G08G09G11G16G23G27G28G30
 130368182.187 5 101585592.10443  24808241.220
  24808239.720          37.550          29.500
 106715865.143 9  83155208.44249  20307348.100
  20307341.860          51.000          51.000
 107531090.588 9  83790506.67949  20462467.780
  20462464.340          51.650          50.850
 117965249.839 8  91920977.57647  22448030.600
  22448027.540          47.450          44.800
 120361355.279 8  93788068.91945  22903999.040
  22903993.100          46.400          38.750
 129067928.336 6 100572386.40344  24560811.620
  24560805.280          40.950          35.100
 126876846.836 7  98865058.09744  24143854.720
  24143848.540          44.550          32.900
 114793330.463 9  89449392.89948  21844422.720
  21844418.740          50.050          48.050
 126741945.099 7  98759938.35144  24118185.900
  24118180.320          43.050          35.100
 115645077.150 9  90113056.41148  22006517.060
  22006513.200          49.150          45.350
 16  2 13  1 31  0.0000000  0 10G01G07G08G09G11G16G23G27G28G30
 130263359.659 5 101503912.27743  24788293.740
  24788290.880          37.600          31.250
 106678211.627 9  83125868.04849  20300182.820
  20300176.540          51.100          51.100
 107548007.635 9  83803688.82249  20465687.040
  20465683.460          51.800          50.150
 118051311.109 8  91988038.26247  22464407.500
  22464404.620          47.800          44.350
 120261641.228 8  93710369.67545  22885024.160
  22885018.160          47.000          38.500
 129158311.375 6 100642814.73544  24578010.800
  24578004.920          41.200          32.850
 126987741.866 8  98951469.73444  24164957.680
  24164951.100          45.600          33.350
 114869949.689 9  89509096.18648  21859002.960
  21858998.760          49.650          47.400
 126671357.558 7  98704935.14444  24104753.220
  24104747.700          43.200          35.400
 115564302.741 9  90050115.33148  21991146.220
  21991142.280          49.700          45.900
 16  2 13  1 31 30.0000000  0 10G01G07G08G09G11G16G23G27G28G30
 130158481.405 6 101422189.04044  24768336.060
  24768334.880          39.000          35.700
 106640978.873 9  83096855.51849  20293097.680
  20293091.360          51.450          51.400
 107565458.270 9  83817286.72249  20469007.780
  20469004.200          51.700          51.000
 118137688.182 8  92055345.04447  22480844.540
  22480841.420          47.600          44.350
 120162151.451 8  93632845.19746  22866091.980
  22866085.920          46.900          39.600
 129248686.185 7 100713236.61344  24595208.620
  24595202.300          43.500          33.900
 127098669.301 8  99037906.64545  24186066.700
  24186059.900          45.350          37.350
 114946930.528 9  89569081.28848  21873651.920
  21873647.720          49.950          48.500
 126600871.854 7  98650011.25345  24091340.180
  24091334.640          43.150          37.400
 115483754.354 9  89987350.37548  21975818.320
  21975814.460          49.750          45.600
 16  2 13  1 32  0.0000000  0 10G01G07G08G09G11G16G23G27G28G30
 130053551.758 5 101340425.75644  24748368.540
  24748366.940          38.100          32.100
 106604170.484 9  83068173.67149  20286093.300
  20286086.980          51.050          51.100
 107583442.363 9  83831300.31549  20472430.040
  20472426.500          51.850          50.300
 118224379.574 8  92122896.74847  22497341.360
  22497338.260          48.050          44.800
 120062890.592 8  93555499.10546  22847203.180
  22847197.320          46.400          39.600
 129339053.922 6 100783653.06443  24612405.260
  24612398.740          41.650          30.600
 127209627.622 8  99124367.70044  24207181.560
  24207174.640          45.450          35.500
 115024271.799 9  89629347.18048  21888369.580
  21888365.300          49.900          46.650
 126530489.380 7  98595167.84745  24077946.780
  24077941.080          43.300          37.050
 115403435.645 9  89924764.39148  21960533.980
  21960530.280          49.550          46.300
 16  2 13  1 32 30.0000000  0 10G01G07G08G09G11G16G23G27G28G30
 129948573.522 6 101258624.55844  24728391.680
  24728390.100          39.400          35.500
 106567788.039 9  83039823.73349  20279169.900
  20279163.660          51.250          51.250
 107601958.601 9  83845728.55249  20475953.580
  20475950.020          51.750          50.750
 118311382.207 8  92190690.97647  22513897.440
  22513894.360          47.650          43.800
 119963861.393 8  93478333.54146  22828358.520
  22828352.860          46.750          39.550
 129429414.467 6 100854063.79544  24629600.280
  24629593.800          40.450          34.050
 127320614.252 6  99210850.77045  24228301.480
  24228295.100          41.900          37.900
 115101970.914 9  89689891.95448  21903155.240
  21903151.020          50.000          48.050
 126460209.757 7  98540404.57244  24064573.000
  24064567.320          42.950          34.150
 115323348.537 9  89862358.87248  21945293.800
  21945290.220          49.150          45.700
 16  2 13  1 33  0.0000000  0 10G01G07G08G09G11G16G23G27G28G30
 129843550.588 6 101176788.66144  24708406.320
  24708405.420          39.550          32.000
 106531834.521 9  83011808.00049  20272328.200
  20272321.920          51.450          51.450
 107621007.159 9  83860571.58449  20479578.300
  20479574.880          51.650          50.750
 118398694.293 8  92258726.33747  22530512.560
  22530509.360          48.400          44.550
 119865068.555 8  93401352.14346  22809558.900
  22809553.160          46.550          39.050
 129519768.474 6 100924469.48844  24646793.820
  24646787.660          41.550          35.350
 127431627.194 5  99297354.25945  24249426.020
  24249420.280          38.950          36.900
 115180026.396 9  89750714.41848  21918008.760
  21918004.580          49.800          48.400
 126390034.315 7  98485722.49445  24051218.920
  24051213.680          42.300          37.350
 115243496.287 9  89800136.35048  21930098.360
  21930094.920          49.600          46.400
 16  2 13  1 33 30.0000000  0 10G01G07G08G09G11G16G23G27G28G30
 129738484.378 5 101094918.95444  24688412.760
  24688412.100          37.350          35.600
 106496310.524 9  82984126.97349  20265568.240
  20265561.920          51.450          51.400
 107640584.983 9  83875827.04049  20483303.740
  20483300.440          51.250          50.650
 118486311.257 8  92326999.27047  22547185.560
  22547182.480          46.550          44.400
 119766513.470 8  93324556.03746  22790804.380
  22790798.580          46.150          39.750
 129610113.296 6 100994868.08844  24663985.900
  24663979.820          39.100          35.300
 127542662.213 6  99383874.91945  24270554.740
  24270549.040          40.300          38.200
 115258434.174 9  89811811.39048  21932929.160
  21932925.120          49.750          46.750
 126319961.250 7  98431120.19144  24037884.420
  24037879.760          42.450          35.550
 115163879.446 9  89738097.28648  21914947.740
  21914944.180          49.850          47.250
 16  2 13  1 34  0.0000000  0 10G01G07G08G09G11G16G23G27G28G30
 129633377.278 6 101013017.39244  24668411.160
  24668410.480          39.000          35.500
 106461217.533 9  82956781.80249  20258890.220
  20258883.960          51.250          51.250
 107660690.291 9  83891493.51849  20487129.600
  20487126.360          51.450          50.900
 118574229.622 8  92395507.03947  22563915.500
  22563912.820          46.700          44.850
 119668198.333 8  93247946.89746  22772095.520
  22772089.540          46.100          39.850
 129700448.150 7 101065258.86844  24681176.060
  24681170.020          42.050          33.000
 127653715.687 6  99470410.03145  24291687.740
  24291682.080          41.200          36.100
 115337191.149 9  89873180.46148  21947916.060
  21947912.020          49.450          48.650
 126249990.345 7  98376597.45744  24024569.640
  24024564.500          43.600          35.800
 115084499.616 9  89676242.90148  21899842.300
  21899838.600          49.750          46.450
 16  2 13  1 34 30.0000000  0 10G01G07G08G09G11G16G23G27G28G30
 129528232.177 6 100931086.20844  24648402.560
  24648402.080          40.750          35.650
 106426557.248 9  82929773.79049  20252294.500
  20252288.260          51.400          51.400
 107681321.839 9  83907570.05749  20491055.640
  20491052.420          51.500          50.650
 118662446.441 8  92464247.36647  22580702.440
  22580699.700          47.250          44.600
 119570126.360 8  93171527.18546  22753432.960
  22753426.920          46.600          39.250
 129790772.795 5 101135641.70744  24698364.240
  24698358.360          38.100          34.050
 127764784.898 7  99556957.43744  24312824.000
  24312818.120          44.050          34.700
 115416294.785 9  89934819.65448  21962968.900
  21962965.020          49.250          47.500
 126180121.419 7  98322154.17145  24011273.960
  24011268.320          44.000          36.100
 115005359.010 9  89614574.91548  21884782.440
  21884778.600          49.900          46.450
 16  2 13  1 35  0.0000000  0 10G01G07G08G09G11G16G23G27G28G30
 129423053.283 6 100849128.71444  24628387.760
  24628387.620          40.200          34.600
 106392332.482 9  82903105.15749  20245781.700
  20245775.520          51.550          51.500
 107702479.836 9  83924056.81049  20495081.820
  20495078.640          51.350          50.700
 118750959.852 8  92533218.81247  22597546.060
  22597543.020          46.900          43.450
 119472302.004 8  93095300.44146  22734817.600
  22734811.800          46.850          39.300
 129881087.542 5 101206016.76744  24715550.380
  24715544.680          38.300          34.200
 127875868.242 8  99643515.90145  24333963.040
  24333956.340          45.100          36.800
 115495743.691 9  89996727.88848  21978087.620
  21978083.680          50.150          47.550
 126110355.432 7  98267791.10744  23997997.900
  23997992.200          43.700          35.750
 114926460.819 9  89553095.83048  21869768.620
  21869764.820          50.050          46.900
 16  2 13  1 35 30.0000000  0 10G01G07G08G09G11G16G23G27G28G30
 129317842.131 6 100767146.06446  24608366.720
  24608366.500          41.100          39.000
 106358544.138 9  82876776.58449  20239351.960
  20239345.860          51.150          51.150
 107724161.521 9  83940951.62949  20499207.700
  20499204.440          51.600          50.900
 118839765.689 8  92602418.12147  22614445.600
  22614442.400          47.550          44.200
 119374726.999 8  93019268.00146  22716249.760
  22716244.060          47.250          40.000
 129971391.112 6 101276383.19145  24732734.760
  24732729.120          40.600          36.550
 127986961.531 8  99730082.12145  24355103.880
  24355096.640          45.100          36.600
 115575534.103 9  90058902.22448  21993271.340
  21993267.200          49.950          47.750
 126040691.331 7  98213507.44245  23984741.340
  23984735.400          44.200          37.050
 114847805.984 9  89491806.37148  21854801.060
  21854797.300          49.700          46.000
 16  2 13  1 36  0.0000000  0 10G01G07G08G09G11G16G23G27G28G30
 129212603.251 6 100685141.77345  24588340.400
  24588339.700          39.600          37.100
 106325195.599 9  82850790.71749  20233006.020
  20232999.740          51.300          51.300
 107746366.918 9  83958254.53249  20503433.340
  20503429.920          51.800          50.200
 118928862.464 8  92671844.15347  22631400.360
  22631397.120          47.350          43.500
 119277405.973 8  92943433.48445  22697730.220
  22697724.280          47.200          38.850
 130061684.327 6 101346741.45944  24749917.180
  24749911.420          40.900          32.750
 128098063.514 7  99816655.05244  24376245.960
  24376238.620          44.650          33.750
 115655664.909 9  90121341.81048  22008519.800
  22008515.580          49.750          47.500
 125971130.374 7  98159304.16845  23971504.200
  23971498.240          43.450          36.100
 114769398.217 9  89430709.43848  21839880.520
  21839876.860          49.900          46.700
 16  2 13  1 36 30.0000000  0 11G01G07G08G09G11G13G16G23G27G28G30
 129107339.833 6 100603118.43645  24568309.420
  24568308.560          40.550          36.650
 106292288.824 9  82825149.07949  20226744.120
  20226737.800          51.650          51.650
 107769094.962 9  83975964.71949  20507758.340
  20507755.000          51.600          50.250
 119018247.396 8  92741494.71847  22648409.860
  22648406.640          47.050          43.700
 119180341.952 8  92867799.21946  22679259.560
  22679253.420          47.200          39.250
 134510041.672 6                  25596409.600
                        39.050
 130151966.943 6 101417091.60043  24767097.540
  24767091.400          39.600          31.950
 128209171.407 5  99903232.61844  24397388.660
  24397381.940          36.850          35.250
 115736133.825 9  90184044.86548  22023832.480
  22023828.200          49.650          45.450
 125901672.918 7  98105181.52245  23958286.940
  23958280.700          44.350          36.000
 114691239.764 9  89369806.77248  21825007.460
  21825003.840          50.350          47.150
 16  2 13  1 37  0.0000000  0 10G01G07G08G09G11G13G16G27G28G30
 129002055.886 6 100521079.08545  24548274.520
  24548273.880          40.500          37.200
 106259826.712 9  82799853.94149  20220566.820
  20220560.500          51.350          51.350
 107792345.630 9  83994082.12249  20512182.780
  20512179.500          51.300          50.850
 119107918.667 8  92811368.40948  22665473.720
  22665470.760          47.000          45.000
 119083539.593 8  92792368.83646  22660838.660
  22660832.540          46.650          40.300
 134413354.243 5                  25578010.140
                        38.400
 130242240.433 5 101487434.52445  24784275.780
  24784270.180          38.500          36.900
 115816939.475 9  90247010.33848  22039209.220
  22039205.000          49.400          47.550
 125832319.963 7  98051140.34645  23945089.220
  23945083.320          43.100          37.500
 114613334.029 9  89309101.02748  21810182.520
  21810178.820          49.850          47.200
 16  2 13  1 37 30.0000000  0 11G01G07G08G09G11G13G16G23G27G28G30
 128896747.623 6 100439020.74044  24528235.080
  24528234.320          41.700          35.950
 106227804.392 9  82774901.49449  20214473.200
  20214466.840          51.600          51.600
 107816110.511 9  84012600.21649  20516705.140
  20516701.800          51.450          50.550
 119197866.327 8  92881457.46447  22682590.080
  22682587.320          46.000          43.250
 118986994.507 8  92717138.92946  22642466.720
  22642460.680          46.850          39.200
 134316933.383 5 104662506.82443  25559662.200
  25559655.560          36.650          30.900
 130332496.800 6 101557764.10744  24801451.160
  24801445.140          39.200          34.150
 128431358.802 6 100076366.02645  24439675.760
  24439669.820          41.800          36.550
 115898072.333 9  90310230.73448  22054648.260
  22054644.280          49.150          46.800
 125763064.376 7  97997175.02145  23931909.980
  23931904.600          43.600          37.150
 114535676.223 9  89248588.47648  21795404.700
  21795401.000          50.350          47.100
 16  2 13  1 38  0.0000000  0 10G01G07G08G09G11G16G23G27G28G30
 128791425.425 6 100356951.54345  24508192.980
  24508191.980          41.300          36.500
 106196231.053 9  82750298.89349  20208465.020
  20208458.600          51.500          51.550
 107840395.612 9  84031523.66749  20521326.500
  20521323.080          51.500          50.600
 119288094.978 8  92951765.44347  22699759.740
  22699756.960          46.150          42.700
 118890717.678 8  92642118.05646  22624145.900
  22624139.940          47.400          40.050
 130422742.533 6 101628085.50744  24818624.240
  24818618.420          41.300          33.400
 128542465.594 7 100162942.76345  24460818.880
  24460812.660          44.200          36.950
 115979537.414 9  90373709.99848  22070150.440
  22070146.640          49.450          47.000
 125693913.911 7  97943291.61445  23918750.760
  23918745.520          42.950          36.450
 114458276.025 9  89188276.65148  21780676.000
  21780672.140          50.250          46.650
 16  2 13  1 38 30.0000000  0 10G01G07G08G09G11G16G23G27G28G30
 128686088.333 6 100274870.75445  24488148.000
  24488147.060          41.200          37.200
 106165104.440 9  82726044.39949  20202541.840
  20202535.400          51.300          51.350
 107865195.706 9  84050848.43249  20526045.820
  20526042.420          51.750          50.200
 119378597.583 8  93022286.91647  22716981.840
  22716978.800          47.000          44.050
 118794707.843 8  92567305.24146  22605875.880
  22605869.820          47.150          39.800
 130512974.174 6 101698395.81144  24835795.020
  24835789.180          40.350          32.300
 128653565.316 7 100249513.99145  24481960.240
  24481954.240          44.950          36.900
 116061328.176 9  90437443.05348  22085714.700
  22085710.860          49.350          47.600
 125624864.597 7  97889487.02544  23905610.940
  23905605.640          43.700          35.900
 114381131.676 9  89128164.19648  21765995.860
  21765992.000          50.050          47.500
 16  2 13  1 39  0.0000000  0 10G01G07G08G09G11G16G23G27G28G30
 128580740.361 6 100192781.50146  24468100.760
  24468100.080          41.250          39.400
 106134427.761 9  82702140.50349  20196704.260
  20196697.800          51.500          51.600
 107890510.389 9  84070574.15749  20530863.040
  20530859.620          51.450          50.700
 119469372.227 8  93093020.36447  22734256.000
  22734252.840          47.350          44.650
 118698969.516 8  92492703.97946  22587657.280
  22587651.180          47.100          40.300
 130603192.221 6 101768695.54144  24852962.920
  24852956.620          40.750          33.600
 128764655.917 7 100336078.13545  24503099.960
  24503094.260          43.150          36.950
 116143443.200 9  90501428.79448  22101340.680
  22101336.820          49.300          47.150
 125555917.552 7  97835762.10445  23892490.760
  23892485.240          43.800          37.700
 114304246.361 9  89068253.57748  21751365.040
  21751361.260          50.150          47.200
 16  2 13  1 39 30.0000000  0 10G01G07G08G09G11G16G23G27G28G30
 128475384.565 6 100110686.12245  24448052.260
  24448051.360          40.600          37.750
 106104202.169 9  82678588.10449  20190952.560
  20190946.000          51.600          51.550
 107916338.066 9  84090699.63349  20535777.860
  20535774.500          51.350          50.350
 119560415.830 8  93163963.41347  22751581.300
  22751578.120          47.550          43.850
 118603505.574 8  92418316.53646  22569490.900
  22569484.880          47.400          39.400
 130693395.993 5 101838984.18844  24870128.340
  24870121.940          37.500          33.850
 128875734.865 6 100422633.12744  24524237.520
  24524231.940          40.750          35.000
 116225879.801 9  90565665.08848  22117027.840
  22117023.980          49.900          46.150
 125487072.160 7  97782116.42845  23879390.120
  23879384.300          44.000          36.650
 114227622.226 9  89008546.49448  21736783.840
  21736780.200          50.100          47.500
 16  2 13  1 40  0.0000000  0  9G01G07G08G09G11G23G27G28G30
 128370027.036 6 100028589.39645  24428003.300
  24428002.620          41.700          38.050
 106074433.283 9  82655391.57649  20185287.700
  20185281.160          51.550          51.450
 107942680.739 9  84111226.39449  20540790.680
  20540787.380          51.450          50.200
 119651728.566 8  93235116.16847  22768957.680
  22768954.520          47.250          43.300
 118508322.257 8  92344147.75446  22551378.260
  22551372.060          47.750          40.050
 128986802.168 5 100509178.98145  24545372.680
  24545367.360          36.650          36.600
 116308638.624 9  90630152.45648  22132776.440
  22132772.400          49.650          46.250
 125418331.892 7  97728552.63445  23866309.480
  23866303.480          44.350          37.900
 114151264.640 9  88949047.09748  21722253.380
  21722249.760          50.250          46.700
 16  2 13  1 40 30.0000000  0  9G01G07G08G09G11G23G27G28G30
 128264663.095 6  99946487.69145  24407953.220
  24407952.340          40.550          38.650
 106045114.734 9  82632545.96349  20179708.540
  20179702.040          51.650          51.700
 107969528.894 9  84132147.04049  20545899.740
  20545896.340          51.550          50.000
 119743299.706 8  93306470.26246  22786382.300
  22786379.820          45.950          41.600
 118413414.816 8  92270193.93746  22533318.080
  22533311.880          47.600          39.800
 129097847.759 5 100595707.95444  24566503.900
  24566498.160          37.550          35.550
 116391709.395 9  90694882.93948  22148584.300
  22148580.260          49.650          45.250
 125349688.971 7  97675064.72644  23853247.180
  23853241.380          43.150          35.550
 114075168.012 9  88889751.04348  21707772.640
  21707768.880          50.550          47.050
 16  2 13  1 41  0.0000000  0 10G01G07G08G09G11G16G23G27G28G30
 128159301.953 6  99864388.15845  24387903.480
  24387902.600          41.100          38.000
 106016254.644 9  82610057.59449  20174216.640
  20174210.180          51.600          51.650
 107996887.562 9  84153465.47149  20551105.940
  20551102.480          51.750          50.050
 119835132.441 8  93378028.19046  22803857.580
  22803855.000          46.150          41.500
 118318792.585 8  92196462.35046  22515311.900
  22515305.940          47.500          40.800
 130963922.452 5 102049793.07044  24921607.000
  24921602.540          36.550          33.850
 129208878.091 6 100682215.69745  24587631.660
  24587625.980          41.250          36.650
 116475095.832 9  90759859.36347  22164452.300
  22164448.080          49.350          44.950
 125281149.690 7  97621657.53544  23840204.520
  23840198.720          44.050          35.700
 113999340.850 9  88830664.95648  21693343.260
  21693339.420          50.650          47.600
 16  2 13  1 41 30.0000000  0 10G01G07G08G09G11G16G23G27G28G30
 128053941.992 6  99782289.52545  24367854.140
  24367853.000          41.100          38.550
 105987850.145 9  82587924.22049  20168811.360
  20168804.920          51.350          51.350
 108024750.659 9  84175176.97549  20556408.140
  20556404.640          51.800          50.300
 119927219.108 8  93449783.99147  22821381.180
  22821378.520          46.700          42.550
 118224453.928 8  92122951.73146  22497359.660
  22497353.880          47.650          40.100
 131054063.347 6 102120032.82043  24938760.640
  24938753.380          40.800          28.950
 129319879.537 7 100768710.29645  24608755.880
  24608749.140          43.100          36.250
 116558790.665 9  90825076.10348  22180378.860
  22180374.640          49.250          47.000
 125212709.104 7  97568327.24945  23827180.780
  23827175.080          43.600          36.850
 113923780.561 9  88771786.83148  21678964.700
  21678960.840          50.300          47.600
 16  2 13  1 42  0.0000000  0 10G01G07G08G09G11G16G23G27G28G30
 127948590.547 6  99700197.56445  24347806.520
  24347805.160          41.050          36.450
 105959907.177 9  82566150.48749  20163493.980
  20163487.520          51.450          51.450
 108053120.877 9  84197283.64049  20561806.800
  20561803.320          51.800          50.300
 120019560.951 8  93521738.65447  22838953.460
  22838950.500          45.700          42.850
 118130406.292 8  92049667.89446  22479463.060
  22479456.960          47.850          39.350
 131144189.717 6 102190261.1384   24955911.620
  24955902.120          40.050          20.700
 129430856.751 7 100855186.02245  24629873.980
  24629867.440          43.650          36.100
 116642795.673 9  90890534.55948  22196364.400
  22196360.220          49.200          45.850
 125144371.333 7  97515077.10145  23814176.480
  23814170.700          44.350          36.650
 113848493.691 9  88713121.75848  21664638.160
  21664634.300          50.450          47.800
 16  2 13  1 42 30.0000000  0 10G01G07G08G09G11G16G23G27G28G30
 127843250.891 6  99618114.78145  24327760.940
  24327759.680          40.300          38.900
 105932427.976 9  82544738.13549  20158264.880
  20158258.320          51.550          51.600
 108081996.942 9  84219784.48249  20567301.700
  20567298.260          51.500          50.300
 120112155.222 8  93593889.99347  22856573.820
  22856570.560          47.250          43.100
 118036653.036 8  91976613.47246  22461622.520
  22461616.200          47.600          40.300
 131234300.861 6 102260477.59144  24973059.240
  24973051.240          40.100          32.650
 129541807.124 7 100941640.78745  24650987.200
  24650980.420          42.650          36.800
 116727108.584 9  90956232.93848  22212408.620
  22212404.440          49.450          45.650
 125076136.855 7  97461907.42345  23801192.000
  23801185.580          43.700          37.650
 113773482.713 9  88654671.66548  21650364.060
  21650360.240          50.550          48.200
 16  2 13  1 43  0.0000000  0 11G01G07G08G09G11G13G16G23G27G28G30
 127737922.962 6  99536041.10445  24307717.720
  24307716.380          40.550          38.050
 105905411.271 9  82523686.17149  20153123.760
  20153117.160          51.350          51.350
 108111373.789 9  84242675.51149  20572891.960
  20572888.420          51.750          50.550
 120204995.771 8  93666233.24147  22874241.100
  22874237.860          45.900          43.800
 117943193.772 8  91903788.12546  22443837.860
  22443831.560          47.550          40.700
 133275007.908 5 103850633.07744  25361391.260
  25361385.980          36.800          33.300
 131324393.801 6 102330679.8564   24990203.360
  24990195.760          39.850          22.750
 129652724.797 7 101028070.05944  24672094.040
  24672087.480          42.300          34.500
 116811723.733 9  91022166.82448  22228510.360
  22228506.180          49.650          47.050
 125008002.637 7  97408815.89444  23788226.340
  23788219.720          43.850          35.550
 113698746.655 9  88596435.78648  21636142.280
  21636138.440          50.100          47.650
 16  2 13  1 43 30.0000000  0 11G01G07G08G09G11G13G16G23G27G28G30
 127632613.304 6  99453981.68045  24287677.920
  24287676.740          40.300          36.750
 105878861.505 9  82502998.04449  20148071.500
  20148064.900          51.600          51.650
 108141253.807 9  84265958.67749  20578577.940
  20578574.360          51.450          50.000
 120298083.054 8  93738768.76247  22891955.040
  22891952.100          46.250          43.700
 117850035.220 8  91831197.07446  22426110.220
  22426104.180          47.450          40.700
 133182058.086 4 103778204.51144  25343702.420
  25343696.080          35.950          33.450
 131414471.636 5 102400870.25444  25007344.400
  25007337.640          37.600          33.550
 129763610.583 6 101114474.61144  24693195.060
  24693188.240          40.850          35.750
 116896642.045 9  91088336.90347  22244669.720
  22244665.600          49.050          44.950
 124939971.765 7  97355804.87245  23775280.380
  23775273.800          44.000          37.700
 113624291.239 9  88538418.59648  21621973.760
  21621970.060          50.350          48.150
 16  2 13  1 44  0.0000000  0 11G01G07G08G09G11G13G16G23G27G28G30
 127527324.388 6  99371938.44145  24267641.900
  24267640.960          40.050          38.050
 105852780.323 9  82482675.05749  20143108.340
  20143101.860          51.300          51.250
 108171635.043 9  84289632.35149  20584359.280
  20584355.700          51.600          50.400
 120391413.493 8  93811493.71447  22909714.820
  22909712.460          45.450          42.550
 117757179.950 8  91758842.35946  22408440.420
  22408434.440          48.100          40.800
 133089416.459 3 103706016.3864   25326071.860
  25326068.500          30.900          20.650
 131504533.482 5 102471048.30143  25024482.560
  25024476.620          37.750          28.900
 129874461.468 7 101200851.83343  24714289.060
  24714282.340          43.200          31.500
 116981860.409 9  91154740.85148  22260886.160
  22260882.220          49.500          46.050
 124872043.463 7  97302873.76744  23762353.960
  23762347.540          43.800          35.550
 113550118.082 9  88480621.34048  21607859.040
  21607855.280          50.450          47.250
 16  2 13  1 44 30.0000000  0 11G01G07G08G09G11G13G16G23G27G28G30
 127422055.896 6  99289911.07345  24247609.740
  24247608.980          40.700          37.850
 105827166.179 9  82462715.98849  20138234.100
  20138227.620          51.650          51.650
 108202512.197 9  84313692.48349  20590234.940
  20590231.460          51.450          49.800
 120484980.569 8  93884403.09346  22927519.860
  22927517.520          45.650          41.700
 117664627.403 8  91686723.52846  22390828.200
  22390822.140          47.800          40.150
 132997082.640 6 103634067.03444  25308500.400
  25308497.400          39.000          33.400
 131594591.330 5 102541212.62544  25041617.740
  25041611.160          36.350          33.050
 129985271.069 5 101287197.00244  24735375.180
  24735368.880          37.950          34.250
 117067372.890 9  91221373.91248  22277158.600
  22277154.760          49.100          45.000
 124804214.719 7  97250020.24945  23749446.420
  23749440.300          43.200          37.350
 113476226.019 9  88423043.11848  21593797.780
  21593794.020          50.600          48.250
 16  2 13  1 45  0.0000000  0 11G01G07G08G09G11G13G16G23G27G28G30
 127316811.270 6  99207902.34344  24227582.260
  24227581.480          40.300          34.500
 105802021.076 9  82443122.40149  20133449.120
  20133442.640          51.700          51.700
 108233883.960 9  84338138.01549  20596204.760
  20596201.320          51.500          49.800
 120578781.717 8  93957494.86246  22945369.640
  22945366.980          46.200          41.150
 117572381.007 8  91614843.26346  22373274.180
  22373268.000          47.700          40.250
 132905059.746 6 103562360.87943  25290989.260
  25290985.500          39.800          29.500
 131684609.546 5 102611373.78643  25058748.540
  25058740.440          38.700          29.550
 130096037.135 5 101373508.23244  24756453.040
  24756446.860          38.000          35.100
 117153177.361 9  91288234.54547  22293486.720
  22293482.840          49.350          44.000
 124736485.748 7  97197244.47745  23736557.920
  23736551.840          44.300          36.100
 113402617.584 9  88365685.90448  21579790.580
  21579786.780          50.850          48.050
 16  2 13  1 45 30.0000000  0 11G01G07G08G09G11G13G16G23G27G28G30
 127211595.436 6  99125916.02345  24207560.320
  24207559.180          40.000          37.000
 105777348.093 9  82423896.72749  20128753.980
  20128747.500          51.550          51.600
 108265750.850 9  84362969.36649  20602268.780
  20602265.280          51.450          49.900
 120672815.682 8  94030768.04046  22963263.740
  22963261.240          46.150          41.950
 117480445.541 8  91543205.26646  22355779.340
  22355773.100          47.700          39.900
 132813352.351 6 103490900.66343  25273538.280
  25273534.600          39.800          31.250
 131774613.608 5 102681506.91142  25075875.200
  25075868.640          38.300          26.850
 130206758.581 5 101459784.76344  24777522.360
  24777516.340          37.850          34.750
 117239273.085 9  91355322.13747  22309870.260
  22309866.320          49.100          44.800
 124668858.255 7  97144547.76045  23723688.880
  23723682.340          44.000          36.250
 113329296.883 9  88308552.90648  21565838.180
  21565834.360          50.650          47.950
 16  2 13  1 46  0.0000000  0 11G01G07G08G09G11G13G16G23G27G28G30
 127106410.409 6  99043953.75145  24187544.360
  24187543.260          40.350          37.800
 105753148.148 9  82405039.62749  20124148.940
  20124142.340          51.600          51.600
 108298110.139 9  84388184.39749  20608426.500
  20608423.020          51.400          50.050
 120767078.348 8  94104219.45046  22981201.780
  22981198.320          47.050          41.100
 117388823.317 8  91471811.34546  22338344.100
  22338337.980          47.600          40.200
 132721962.173 6 103419687.62243  25256147.660
  25256143.280          39.650          30.300
 131864598.084 5 102751624.64244  25092998.260
  25092991.620          36.850          33.650
 130317432.292 6 101546023.98844  24798583.040
  24798577.640          39.750          35.850
 117325656.495 8  91422633.87347  22326308.400
  22326304.460          48.800          44.950
 124601331.176 7  97091929.32245  23710838.720
  23710832.580          44.100          36.350
 113256265.022 9  88251644.97148  21551940.640
  21551936.840          50.700          48.450
 16  2 13  1 46 30.0000000  0 11G01G07G08G09G11G13G16G23G27G28G30
 127001260.568 6  98962018.84744  24167535.280
  24167534.100          40.650          35.800
 105729424.416 9  82386553.60649  20119634.500
  20119627.860          51.450          51.450
 108330961.442 9  84413782.81049  20614677.900
  20614674.420          51.400          49.950
 120861568.069 8  94177847.81646  22999182.840
  22999179.080          46.600          41.800
 117297518.534 8  91400664.76946  22320969.420
  22320963.260          47.650          39.800
 132630893.370 6 103348724.8734   25238818.380
  25238812.520          40.800          23.350
 131954563.238 4 102821727.37344  25110117.020
  25110112.000          34.700          32.250
 130428056.475 5 101632224.60745  24819634.540
  24819628.760          38.050          37.700
 117412326.400 8  91490168.85247  22342801.060
  22342796.860          48.850          44.450
 124533905.765 7  97039390.05745  23698007.920
  23698001.800          43.600          38.000
 113183525.615 9  88194964.92448  21538098.780
  21538094.920          50.550          48.050
 16  2 13  1 47  0.0000000  0 11G01G07G08G09G11G13G16G23G27G28G30
 126896148.639 6  98880113.48544  24147533.260
  24147531.740          40.650          35.900
 105706177.792 9  82368439.37049  20115210.780
  20115204.260          51.300          51.350
 108364302.695 9  84439762.98949  20621022.540
  20621019.080          51.400          50.750
 120956281.373 7  94251650.31947  23017205.820
  23017202.800          44.150          43.300
 117206533.733 8  91329767.53846  22303655.560
  22303649.420          47.600          40.850
 132540148.380 5 103278014.44642  25221549.820
  25221543.860          38.550          27.900
 132044509.045 4 102891814.81943  25127233.120
  25127228.120          35.500          30.300
 130538628.109 6 101718384.22645  24840675.760
  24840669.840          40.400          37.050
 117499279.859 9  91557924.79348  22359347.760
  22359343.440          49.000          45.600
 124466581.795 7  96986929.83745  23685196.500
  23685190.940          44.000          36.950
 113111080.379 9  88138514.11948  21524312.880
  21524308.960          50.400          48.250
 16  2 13  1 47 30.0000000  0 11G01G07G08G09G11G13G16G23G27G28G30
 126791076.625 6  98798239.24545  24127538.660
  24127537.100          41.950          37.500
 105683409.153 9  82350697.57349  20110878.020
  20110871.560          51.500          51.600
 108398131.197 9  84466122.89449  20627459.900
  20627456.400          51.450          49.850
 121051214.091 8  94325623.84347  23035270.720
  23035268.160          46.050          42.850
 117115870.921 8  91259121.23646  22286402.940
  22286396.620          47.400          40.300
 132449728.585 6 103207557.55344  25204343.700
  25204337.320          41.800          32.250
 132134434.610 5 102961886.68143  25144345.600
  25144340.220          37.950          30.950
 130649143.098 7 101804499.84244  24861706.060
  24861699.920          42.250          35.850
 117586513.227 8  91625898.86347  22375947.760
  22375943.480          48.950          44.500
 124399357.716 7  96934547.48344  23672404.300
  23672398.620          44.400          35.600
 113038930.505 9  88082293.44448  21510583.180
  21510579.280          50.600          48.100
 16  2 13  1 48  0.0000000  0 11G01G07G08G09G11G13G16G23G27G28G30
 126686046.995 6  98716398.04745  24107552.100
  24107550.820          41.050          36.250
 105661119.441 9  82333328.97749  20106636.380
  20106629.940          51.650          51.600
 108432444.674 9  84492860.66849  20633989.500
  20633985.960          51.450          49.600
 121146362.575 8  94399765.47347  23053376.680
  23053374.500          45.450          42.800
 117025532.534 8  91188727.73546  22269212.080
  22269205.880          47.700          40.700
 132359636.099 7 103137355.64743  25187199.740
  25187193.880          42.050          30.500
 132224338.285 5 103031941.45244  25161454.120
  25161448.560          36.750          32.050
 130759598.396 7 101890568.87944  24882724.880
  24882718.760          42.550          35.850
 117674023.367 8  91694088.54648  22392600.440
  22392596.340          48.750          45.050
 124332232.888 7  96882242.49045  23659631.180
  23659625.460          44.600          37.800
 112967077.583 9  88026304.17148  21496909.960
  21496906.120          50.650          48.400
 16  2 13  1 48 30.0000000  0 11G01G07G08G09G11G13G16G23G27G28G30
 126581063.263 6  98634592.59445  24087574.020
  24087573.440          41.700          37.150
 105639310.222 9  82316334.78449  20102486.220
  20102479.820          51.650          51.650
 108467241.761 9  84519975.28149  20640611.160
  20640607.620          51.500          49.750
 121241724.214 8  94474073.19747  23071523.380
  23071521.440          46.100          42.700
 116935521.798 8  91118589.56046  22252083.580
  22252077.600          47.750          41.800
 132269874.105 6 103067411.32043  25170118.640
  25170112.760          41.950          30.750
 132314220.372 4 103101979.30144  25178558.800
  25178552.960          35.250          33.800
 130869992.117 6 101976589.98745  24903732.140
  24903726.080          41.700          38.800
 117761808.212 8  91762492.31948  22409305.380
  22409301.420          48.950          45.300
 124265208.006 7  96830015.35845  23646876.800
  23646871.220          44.400          37.600
 112895524.237 9  87970548.32948  21483293.740
  21483289.940          50.900          48.500
 16  2 13  1 49  0.0000000  0 11G01G07G08G09G11G13G16G23G27G28G30
 126476132.641 7  98552828.51045  24067606.260
  24067605.560          42.000          37.750
 105617987.400 9  82299719.60149  20098428.620
  20098422.220          51.450          51.500
 108502524.894 9  84547468.63149  20647325.360
  20647321.800          51.450          49.850
 121337299.974 8  94548547.76247  23089711.020
  23089709.080          46.100          42.250
 116845845.895 8  91048712.28646  22235018.820
  22235013.020          48.000          41.650
 132180449.437 6 102997729.85244  25153101.880
  25153095.980          41.300          33.300
 132404084.405 5 103172003.16842  25195659.340
  25195653.780          37.550          27.950
 130980325.244 6 102062563.82145  24924727.820
  24924721.620          41.050          38.550
 117849869.216 8  91831111.28147  22426062.860
  22426059.000          48.900          44.800
 124198286.632 7  96777868.85445  23634141.980
  23634136.320          43.650          37.850
 112824276.694 9  87915030.77448  21469735.840
  21469732.000          50.850          48.100
 16  2 13  1 49 30.0000000  0 11G01G07G08G09G11G13G16G23G27G28G30
 126371253.560 6  98471104.59844  24047648.540
  24047647.800          41.950          34.750
 105597148.063 9  82283481.16249  20094462.960
  20094456.620          51.450          51.400
 108538287.912 9  84575335.91049  20654130.820
  20654127.240          51.450          50.500
 121433082.131 7  94623183.19146  23107937.920
  23107935.720          44.950          40.700
 116756503.063 8  90979094.54347  22218017.440
  22218011.520          48.050          42.100
 132091360.734 6 102928310.07443  25136148.900
  25136142.940          40.800          31.150
 132493925.464 5 103242009.09343  25212756.040
  25212750.080          38.350          30.250
 131090590.944 6 102148485.11545  24945710.340
  24945704.340          40.700          36.400
 117938199.329 8  91899939.90948  22442871.660
  22442867.700          48.750          46.050
 124131464.458 7  96725799.68245  23621425.840
  23621420.240          43.550          36.650
 112753332.688 9  87859749.73848  21456235.740
  21456231.880          50.700          48.500
 16  2 13  1 50  0.0000000  0 10G01G07G08G09G11G13G23G27G28G30
 126266430.863 6  98389424.61545  24027701.300
  24027700.620          41.700          37.550
 105576795.340 9  82267621.90849  20090590.000
  20090583.580          51.650          51.650
 108574530.431 9  84603576.82349  20661027.640
  20661024.000          51.600          49.900
 121529069.364 8  94697978.40846  23126203.620
  23126201.060          45.850          40.600
 116667497.976 8  90909739.96646  22201080.320
  22201074.080          48.250          41.600
 132002611.688 6 102859155.04641  25119260.660
  25119254.380          40.350          25.300
 131200787.897 6 102234352.88345  24966679.900
  24966674.200          40.300          36.600
 118026797.621 8  91968977.54848  22459731.420
  22459727.500          48.800          45.200
 124064743.093 7  96673809.05345  23608729.120
  23608723.280          44.400          36.650
 112682695.960 9  87804708.14848  21442794.000
  21442790.180          51.000          48.800
 16  2 13  1 50 30.0000000  0 11G01G07G08G09G11G13G16G23G27G28G30
 126161663.262 7  98307787.57545  24007764.720
  24007763.480          42.050          38.700
 105556926.358 9  82252139.58249  20086809.060
  20086802.620          51.400          51.400
 108611246.378 9  84632186.66549  20668014.380
  20668010.880          51.350          50.000
 121625254.204 8  94772927.60046  23144507.360
  23144503.900          46.750          40.250
 116578829.526 8  90840647.70446  22184207.380
  22184200.920          48.350          41.550
 131914201.142 5 102790263.6734   25102436.740
  25102430.700          38.900          24.850
 132673541.410 5                  25246936.280
                        37.850
 131310909.049 6 102320161.60044  24987635.560
  24987629.960          40.100          32.900
 118115657.234 8  92038218.78048  22476640.860
  22476636.680          48.550          45.650
 123998117.602 7  96621893.11944  23596050.620
  23596044.540          43.850          35.900
 112612364.410 9  87749904.34948  21429410.360
  21429406.520          50.850          48.750
 16  2 13  1 51  0.0000000  0 11G01G07G08G09G11G13G16G23G27G28G30
 126056963.115 7  98226203.09845  23987840.840
  23987839.500          42.250          37.950
 105537552.154 9  82237042.81449  20083122.240
  20083115.840          51.450          51.400
 108648443.482 9  84661171.42749  20675092.700
  20675089.300          51.500          50.050
 121721642.826 8  94848035.59346  23162849.780
  23162846.340          46.650          41.450
 116490509.548 8  90771826.99546  22167400.720
  22167394.200          48.650          41.100
 131826140.631 5 102721645.14243  25085678.920
  25085673.500          38.350          31.900
                                  25264020.120
                        38.500
 131420961.505 5 102405916.75044  25008578.000
  25008571.840          38.650          32.950
 118204784.861 8  92107668.91447  22493601.280
  22493596.980          48.400          44.200
 123931597.473 7  96570059.30644  23583392.200
  23583386.160          44.750          35.750
 112542349.486 9  87695347.28248  21416086.940
  21416083.040          50.900          48.450
 16  2 13  1 51 30.0000000  0 11G01G07G08G09G11G13G16G23G27G28G30
 125952329.539 7  98144670.48045  23967929.760
  23967928.240          42.500          37.550
 105518669.747 9  82222329.25749  20079529.040
  20079522.600          51.350          51.250
 108686115.822 9  84690526.48949  20682261.560
  20682258.280          51.650          50.450
 121818228.221 8  94923296.89247  23181229.140
  23181226.320          45.600          43.050
 116402537.093 8  90703277.06646  22150660.080
  22150653.620          48.350          40.950
 131738429.089 5 102653290.56744  25068987.180
  25068982.600          38.000          32.150
 132853072.434 6 103521870.59743  25281098.020
  25281093.980          39.050          29.950
 131530937.970 4 102491612.73643  25029505.860
  25029499.600          35.950          30.300
 118294174.057 8  92177322.82747  22510611.320
  22510607.040          47.700          44.500
 123865178.660 7  96518304.41745  23570753.100
  23570747.100          44.800          36.050
 112472649.417 9  87641035.56148  21402823.460
  21402819.520          50.850          48.300
 16  2 13  1 52  0.0000000  0 10G01G07G08G09G11G13G23G27G28G30
 125847760.529 7  98063188.16145  23948030.840
  23948029.760          42.300          38.300
 105500275.628 9  82207996.17949  20076028.780
  20076022.300          51.400          51.400
 108724256.520 9  84720246.51449  20689519.480
  20689516.280          51.500          50.650
 121915002.083 7  94998705.03847  23199644.320
  23199641.960          44.800          43.800
 116314910.073 8  90634996.31846  22133984.960
  22133978.840          48.400          41.950
 131651063.930 6 102585213.85642  25052362.240
  25052357.080          41.500          26.300
 131640831.062 5 102577243.78843  25050417.440
  25050411.980          36.450          31.950
 118383817.030 8  92247174.48447  22527669.760
  22527665.460          48.450          44.300
 123798855.995 7  96466624.44745  23558132.380
  23558126.420          44.150          36.300
 112403261.172 9  87586966.81348  21389619.340
  21389615.380          50.950          48.400
 16  2 13  1 52 30.0000000  0 11G01G07G08G09G11G13G16G23G27G28G30
 125743262.081 7  97981760.85045  23928145.380
  23928144.440          43.150          37.700
 105482374.429 9  82194047.19649  20072622.320
  20072615.800          51.300          51.300
 108762866.509 9  84750332.21749  20696866.880
  20696863.560          51.750          50.300
 122011964.332 8  95074259.96047  23218095.580
  23218093.420          45.750          42.800
 116227634.066 8  90566989.04546  22117376.840
  22117370.680          48.550          41.000
 131564050.850 6 102517411.46043  25035804.500
  25035798.260          41.350          28.600
 133032502.880 5 103661671.12344  25315243.920
  25315236.460          38.850          32.550
 131750640.985 5 102662810.00544  25071313.820
  25071308.400          37.150          32.600
 118473714.283 8  92317224.29647  22544776.760
  22544772.380          48.300          44.400
 123732632.390 7  96415021.66444  23545530.540
  23545524.240          44.250          35.600
 112334189.971 9  87533145.11848  21376475.480
  21376471.500          50.850          47.850
 16  2 13  1 53  0.0000000  0 11G01G07G08G09G11G13G16G23G27G28G30
 125638840.474 7  97900393.40045  23908274.820
  23908273.660          42.650          38.300
 105464970.736 9  82180485.88649  20069310.560
  20069303.940          51.700          51.650
 108801947.301 9  84780784.78449  20704303.840
  20704300.420          51.500          49.900
 122109114.813 8  95149961.59946  23236583.080
  23236580.600          46.600          41.650
 116140715.080 8  90499259.99046  22100836.720
  22100830.520          48.700          41.350
 131477395.570 7 102449887.88643  25019315.080
  25019308.960          42.850          31.250
 133122184.789 5 103731553.06143  25332309.020
  25332303.840          36.800          28.650
 131860368.264 4 102748311.63544  25092194.600
  25092188.600          34.850          32.650
 118563866.319 8  92387472.60747  22561932.160
  22561927.940          48.850          44.800
 123666510.318 7  96363498.03345  23532948.120
  23532941.500          44.900          36.350
 112265441.046 9  87479574.54348  21363392.940
  21363389.000          50.950          48.700
 16  2 13  1 53 30.0000000  0 10G01G07G08G09G11G13G16G27G28G30
 125534494.425 7  97819084.85746  23888418.480
  23888417.280          42.100          39.950
 105448061.286 9  82167309.69049  20066092.800
  20066086.160          51.400          51.400
 108841492.554 9  84811599.25749  20711829.100
  20711825.620          51.500          50.100
 122206446.197 8  95225804.16447  23255104.940
  23255102.320          45.750          42.300
 116054151.965 8  90431808.23147  22084364.320
  22084358.120          48.250          42.300
 131391096.629 6 102382641.98244  25002892.880
  25002887.160          40.600          33.050
 133211840.697 5 103801414.66243  25349370.260
  25349365.260          37.900          29.550
 118654266.203 8  92457914.09347  22579134.660
  22579130.700          48.500          44.650
 123600485.844 8  96312050.44945  23520384.040
  23520377.600          45.100          38.100
 112197012.223 9  87426253.40148  21350371.260
  21350367.380          50.800          48.400
 16  2 13  1 54  0.0000000  0 10G01G07G08G09G11G13G16G27G28G30
 125430232.159 6  97737841.60345  23868578.040
  23868576.740          41.950          37.800
 105431652.611 9  82154523.71649  20062970.280
  20062963.720          51.600          51.550
 108881505.616 9  84842778.26049  20719443.260
  20719439.740          51.500          49.850
 122303960.443 7  95301789.24445  23273660.960
  23273658.420          44.650          38.900
 115967952.531 8  90364639.88646  22067961.080
  22067954.940          48.600          41.450
 131305161.276 6 102315679.43144  24986540.100
  24986533.920          40.250          35.550
 133301474.773 5 103871255.3745   25366426.980
  25366421.660          36.750          23.950
 118744916.634 8  92528550.76648  22596384.840
  22596380.960          48.350          45.350
 123534563.571 7  96260682.48345  23507839.500
  23507833.140          44.550          37.900
 112128910.855 9  87373187.40848  21337412.000
  21337408.100          51.100          48.900
 16  2 13  1 54 30.0000000  0 10G01G07G08G09G11G13G16G27G28G30
 125326054.234 6  97656664.05046  23848753.380
  23848752.180          41.500          39.750
 105415743.637 9  82142127.12249  20059942.860
  20059936.380          51.500          51.500
 108921981.909 9  84874318.23749  20727145.520
  20727142.140          51.450          49.900
 122401651.926 8  95377912.47145  23292250.860
  23292247.860          45.400          38.800
 115882117.228 8  90297755.27546  22051627.180
  22051621.000          48.400          41.750
 131219589.975 5 102249000.55144  24970256.060
  24970250.100          36.950          33.250
 133391071.727 4 103941081.40944  25383479.480
  25383474.620          34.950          32.750
 118835812.421 8  92599378.64847  22613681.700
  22613677.860          48.050          44.100
 123468741.094 8  96209392.28645  23495313.760
  23495307.720          45.000          38.250
 112061136.431 9  87320376.19349  21324514.960
  21324511.160          51.100          49.000
 16  2 13  1 55  0.0000000  0 10G01G07G08G09G11G13G16G27G28G30
 125221963.795 7  97575554.66446  23828945.440
  23828944.180          42.500          39.150
 105400335.963 9  82130121.13749  20057010.840
  20057004.420          51.450          51.450
 108962919.576 9  84906217.71649  20734935.700
  20734932.400          51.500          50.200
 122499517.565 8  95454171.33146  23310874.000
  23310870.860          45.750          40.100
 115796649.058 8  90231156.70546  22035363.040
  22035356.720          48.600          41.300
 131134385.130 4 102182607.26744  24954041.720
  24954035.940          35.200          32.900
 133480656.876 4                  25400526.840
                        34.800
 118926951.060 8  92670395.75547  22631024.700
  22631020.880          48.700          44.700
 123403018.420 7  96158179.83945  23482807.200
  23482801.440          44.900          37.700
 111993691.238 9  87267821.50448  21311680.520
  21311676.840          51.100          48.900
 16  2 13  1 55 30.0000000  0 10G01G07G08G09G11G13G16G27G28G30
 125117962.746 7  97494514.96245  23809154.800
  23809153.420          42.600          38.200
 105385429.645 9  82118505.83349  20054174.260
  20054167.800          51.400          51.400
 109004315.522 9  84938474.29549  20742813.080
  20742809.760          51.400          50.250
 122597553.013 8  95530562.58546  23329529.740
  23329526.720          45.800          41.350
 115711549.639 8  90164845.47446  22019169.120
  22019162.760          48.350          41.800
 131049548.476 4 102116500.81844  24937896.820
  24937892.360          33.950          32.850
 133570216.126 5                  25417570.340
                        36.700
 119018328.841 8  92741599.22747  22648413.200
  22648409.400          48.250          44.900
 123337394.351 7  96107044.24645  23470319.260
  23470313.500          44.900          37.200
 111926576.232 9  87215524.11348  21298908.920
  21298905.280          50.950          48.800
 16  2 13  1 56  0.0000000  0 10G01G07G08G09G11G13G16G27G28G30
 125014054.110 6  97413547.25545  23789381.480
  23789380.280          41.750          38.400
 105371025.692 9  82107281.97849  20051433.320
  20051426.760          51.500          51.550
 109046168.009 9  84971086.62049  20750777.280
  20750773.960          51.450          50.100
 122695755.041 8  95607083.60747  23348217.160
  23348214.420          45.700          43.750
 115626821.373 8  90098823.46047  22003045.760
  22003039.520          48.650          42.100
 130965082.236 5 102050683.04144  24921823.120
  24921818.540          37.200          33.900
 133659749.081 5                  25434608.420
                        37.850
 119109943.125 8  92812986.95648  22665846.900
  22665842.920          48.750          45.100
 123271868.384 7  96055985.08045  23457849.980
  23457844.160          44.100          38.350
 111859793.444 9  87163485.58749  21286200.580
  21286196.940          51.100          49.200
 16  2 13  1 56 30.0000000  0 10G01G07G08G09G11G13G16G27G28G30
 124910242.839 7  97332655.40645  23769626.820
  23769625.680          42.150          37.650
 105357127.400 9  82096452.14249  20048788.560
  20048782.040          51.500          51.500
 109088476.549 9  85004054.31049  20758828.340
  20758824.980          51.350          49.900
 122794122.384 8  95683733.42947  23366936.000
  23366933.380          45.050          42.100
 115542469.104 8  90033094.43646  21986994.120
  21986987.740          48.800          41.500
 130880990.885 6 101985157.35243  24905821.280
  24905816.820          39.450          29.100
 133749256.892 5 104220173.5205   25451640.960
  25451631.040          38.000          15.200
 119201793.212 8  92884558.41347  22683325.460
  22683321.360          48.800          44.050
 123206442.060 7  96005003.57645  23445399.460
  23445393.420          44.100          37.900
 111793346.892 9  87111709.06349  21273556.240
  21273552.560          51.050          49.200
 16  2 13  1 57  0.0000000  0 10G01G07G08G09G11G13G16G27G28G30
 124806531.057 6  97251841.08245  23749891.120
  23749890.000          41.350          37.750
 105343735.381 9  82086016.80749  20046240.100
  20046233.680          51.500          51.500
 109131238.278 9  85037375.13849  20766965.580
  20766962.240          51.350          49.900
 122892650.912 7  95760508.83846  23385685.220
  23385682.860          44.550          41.100
 115458494.620 8  89967659.78546  21971014.320
  21971007.960          48.550          41.650
 130797275.863 7 101919924.92443  24889891.160
  24889886.480          42.250          31.650
 133838738.125 5                  25468668.680
                        36.000
 119293875.606 8  92956310.93147  22700848.200
  22700844.100          47.950          44.800
 123141114.278 7  95954098.82945  23432967.980
  23432961.740          44.100          37.300
 111727237.752 9  87060195.46649  21260976.100
  21260972.460          51.100          49.650
 16  2 13  1 57 30.0000000  0 10G01G07G08G09G11G13G16G27G28G30
 124702922.365 7  97171107.09345  23730175.000
  23730174.200          42.350          38.750
 105330851.098 9  82075977.10849  20043788.300
  20043781.880          51.300          51.300
 109174451.998 9  85071048.16749  20775188.780
  20775185.420          51.050          49.900
 122991338.014 8  95837407.79447  23404464.800
  23404462.600          45.750          42.550
 115374901.150 8  89902522.05347  21955107.000
  21955100.720          48.800          42.000
 130713940.646 7 101854988.38443  24874033.480
  24874028.300          42.100          31.550
 133928193.038 5 104359657.20144  25485690.880
  25485686.720          37.550          33.750
