     2.11           OBSERVATION DATA    G (GPS)             RINEX VERSION / TYPE
teqc  2016Nov7      root                20180417 16:16:38UTCPGM / RUN BY / DATE
Linux 2.4.21-27.ELsmp|Opteron|gcc|Linux x86_64|=+           COMMENT
     2.11           OBSERVATION DATA    G (GPS)             COMMENT
teqc  2015Nov6      NOAA/NOS/NGS/CORS   20160214 01:36:16UTCCOMMENT
Solaris x86 5.10|AMD64|cc SC5.8 -xarch=amd64|=+|=+          COMMENT
teqc  2015Nov6      NOAA/NOS/NGS/CORS   20160214 01:35:24UTCCOMMENT
BIT 2 OF LLI FLAGS DATA COLLECTED UNDER A/S CONDITION       COMMENT
 SNR is mapped to RINEX snr flag value [0-9]                COMMENT
  L1 & L2: min(max(int(snr_dBHz/6), 0), 9)                  COMMENT
teqc edited: all SBAS satellites excluded                   COMMENT
teqc edited: all Compass satellites excluded                COMMENT
teqc edited: all QZSS satellites excluded                   COMMENT
Forced Modulo Decimation to 30 seconds                      COMMENT
SBCH                                                        MARKER NAME
SBCH                                                        MARKER NUMBER
Randy Osborne       LASU                                    OBSERVER / AGENCY
5051K72720          TRIMBLE NETR9       5.10                REC # / TYPE / VERS
5000117521          TRM57971.00     NONE                    ANT # / TYPE
    31569.9070 -5535449.0960  3157696.7490                  APPROX POSITION XYZ
        0.0000        0.0000        0.0000                  ANTENNA: DELTA H/E/N
     1     1                                                WAVELENGTH FACT L1/2
     8    L1    L2    C1    C2    P1    P2    S1    S2      # / TYPES OF OBSERV
    30.0000                                                 INTERVAL
teqc.w windowed: start @ 2016 Feb 13 00:00:00.000           COMMENT
teqc.w windowed:  end  @ 2016 Feb 13 05:00:00.000           COMMENT
teqc.w edited: all GLONASS satellites excluded              COMMENT
  2016     2    13     0    50    0.0000000     GPS         TIME OF FIRST OBS
                                                            END OF HEADER
 16  2 13  0 50  0.0000000  0 10G30G07G08G11G16G27G01G28G09G23
 124715056.737 6  97180603.218 6  23732478.250    23732485.203
  23732484.918          39.800          40.300
 113442043.618 7  88396448.043 7  21587282.070    21587285.773
  21587286.277          47.100          44.800
 107624706.673 8  83863508.037 8  20480273.211    20480278.496
  20480278.207          50.400          50.000
 123162236.436 6  95970616.75544  23436980.414
  23436984.277          41.500          24.900
 127759857.231 6  99553224.32243  24311862.398
  24311866.754          38.800          19.600
 114048318.681 7  88868937.486 7  21702645.609    21702650.422
  21702650.082          47.900          46.500
 132119795.764 6 102950529.303 5  25141563.023    25141570.738
  25141572.238          36.400          35.900
 128159026.321 6  99864225.29542  24387848.711
  24387851.332          39.900          16.300
 108781845.096 8  84764939.196 8  20700430.070    20700435.336
  20700435.910          49.100          49.900
 112281306.402 7  87492006.74345  21366399.813
  21366402.195          47.800          35.300
 16  2 13  0 50 30.0000000  0 10G30G07G08G11G16G27G01G28G09G23
 124633013.454 7  97116673.493 6  23716866.625    23716873.559
  23716873.832          42.400          41.800
 113376327.865 7  88345240.998 7  21574776.820    21574780.305
  21574780.617          47.800          45.500
 107630263.002 8  83867837.650 8  20481330.094    20481336.070
  20481335.762          50.300          50.000
 123069981.034 6  95898729.49844  23419425.445
  23419430.379          41.800          27.000
 127844497.666 6  99619177.86543  24327969.438
  24327972.824          38.600          19.900
 114114694.754 8  88920659.098 7  21715276.797    21715281.816
  21715281.898          48.200          46.900
 132038925.800 6 102887513.872 5  25126173.984    25126182.402
  25126182.574          37.100          34.900
 128099963.954 6  99818202.75743  24376609.672
  24376612.730          40.500          20.100
 108803167.369 8  84781553.938 8  20704487.328    20704492.461
  20704493.277          49.300          50.400
 112361354.776 8  87554382.08745  21381632.906
  21381634.801          48.300          35.600
 16  2 13  0 51  0.0000000  0 10G30G07G08G11G16G27G01G28G09G23
 124550943.134 6  97052722.682 6  23701248.508    23701256.406
  23701255.969          39.700          40.400
 113310717.517 8  88294116.084 7  21562291.945    21562294.742
  21562294.738          48.100          45.000
 107636396.290 8  83872616.848 8  20482497.383    20482503.039
  20482502.641          50.500          49.700
 122977800.808 7  95826900.81044  23401884.539
  23401888.902          43.900          27.400
 127929060.571 6  99685071.10143  24344061.875
  24344063.938          41.000          19.600
 114181519.041 8  88972729.968 7  21727993.086    21727998.145
  21727998.406          48.000          47.300
 131957857.314 5 102824343.733 6  25110746.164    25110754.676
  25110755.113          32.400          36.700
 128041087.629 6  99772325.27643  24365404.664
  24365410.621          38.800          20.600
 108825067.108 8  84798618.660 8  20708654.969    20708659.930
  20708660.391          49.600          49.700
 112441810.244 8  87617074.66046  21396943.008
  21396945.109          48.700          36.400
 16  2 13  0 51 30.0000000  0 10G30G07G08G11G16G27G01G28G09G23
 124468846.729 6  96988751.531 6  23685625.828    23685631.883
  23685631.465          41.700          38.700
 113245214.206 7  88243074.585 7  21549826.844    21549829.703
  21549829.508          47.400          45.200
 107643105.701 8  83877844.970 8  20483774.086    20483779.641
  20483779.465          50.800          50.100
 122885698.807 7  95755133.03343  23384357.648
  23384360.652          42.700          23.600
 128013545.464 6  99750903.47843  24360137.688
  24360141.617          38.200          21.700
 114248789.135 7  89025148.217 7  21740793.781    21740799.094
  21740798.984          47.800          47.100
 131876592.613 5 102761020.806 5  25095282.547    25095291.316
  25095291.199          34.600          35.200
 127982397.010 6  99726592.45343  24354236.211
  24354241.586          39.900          19.600
 108847543.543 8  84816132.760 8  20712932.375    20712937.168
  20712937.270          49.200          49.500
 112522670.405 7  87680082.56145  21412330.188
  21412331.887          47.800          35.900
 16  2 13  0 52  0.0000000  0 10G30G07G08G11G16G27G01G28G09G23
 124386725.386 7  96924760.918 6  23669999.922    23670005.785
  23670005.375          43.400          40.200
 113179819.625 7  88192117.798 7  21537382.891    21537386.152
  21537386.293          47.600          45.300
 107650391.195 8  83883521.988 8  20485160.383    20485166.066
  20485165.824          50.800          50.000
 122793677.952 6  95683428.51343  23366845.734
  23366849.145          41.700          23.800
 128097951.765 6  99816674.57743  24376200.188
  24376203.801          40.400          21.100
 114316502.743 8  89077912.067 7  21753679.305    21753684.137
  21753683.637          48.700          46.300
 131795134.364 5 102697546.945 5  25079781.828    25079789.055
  25079789.469          35.800          34.800
 127923892.040 6  99681004.30443  24343104.422
  24343106.793          40.800          18.600
 108870595.927 8  84834095.644 8  20717318.938    20717323.590
  20717323.512          48.500          49.300
 112603932.551 7  87743403.68945  21427793.875
  21427795.250          47.200          35.700
 16  2 13  0 52 30.0000000  0 10G30G07G08G11G16G27G01G28G09G23
 124304579.892 7  96860751.523 7  23654367.531    23654374.859
  23654374.746          42.800          42.300
 113114535.483 7  88141247.065 7  21524959.055    21524962.297
  21524962.754          47.300          45.900
 107658251.558 8  83889646.950 8  20486656.266    20486662.082
  20486661.824          50.000          49.800
 122701741.043 7  95611789.41044  23349352.133
  23349355.957          43.200          27.000
 128182278.820 6  99882383.92843  24392247.836
  24392251.355          40.900          22.300
 114384657.066 7  89131019.337 7  21766649.539    21766654.441
  21766654.055          47.400          47.000
 131713484.578 6 102633923.769 5  25064244.164    25064251.715
  25064250.973          36.500          34.100
 127865571.943 6  99635560.12842  24332006.086
  24332007.152          41.500          17.800
 108894223.166 8  84852506.479 8  20721814.617    20721819.789
  20721819.332          49.200          48.900
 112685593.569 7  87807035.65445  21443334.008
  21443335.453          47.800          35.800
 16  2 13  0 53  0.0000000  0 10G30G07G08G11G16G27G01G28G09G23
 124222410.906 6  96796723.849 6  23638730.898    23638737.602
  23638737.676          41.400          40.900
 113049363.447 7  88090463.695 7  21512557.117    21512560.992
  21512560.844          47.500          45.100
 107666686.216 8  83896219.429 8  20488261.391    20488266.492
  20488266.109          51.300          49.500
 122609890.948 7  95540217.96644  23331873.461
  23331877.758          42.400          26.400
 128266525.798 6  99948030.99443  24408279.242
  24408282.281          38.400          20.600
 114453249.442 8  89184467.938 7  21779701.813    21779707.367
  21779707.520          48.200          47.000
 131631645.255 5 102570153.061 6  25048670.281    25048678.438
  25048678.273          34.900          36.100
 127807436.557 6  99590259.89742  24320941.867
  24320945.695          38.700          17.400
 108918424.177 8  84871364.406 8  20726420.367    20726425.105
  20726424.641          49.800          49.000
 112767650.902 7  87870976.40745  21458948.523
  21458950.219          47.300          35.000
 16  2 13  0 53 30.0000000  0 10G30G07G08G11G16G27G01G28G09G23
 124140219.997 7  96732679.045 6  23623090.625    23623095.793
  23623095.656          42.100          39.700
 112984305.565 7  88039769.290 7  21500177.539    21500180.602
  21500180.309          46.500          45.000
 107675694.948 8  83903239.237 8  20489975.414    20489980.898
  20489980.699          51.300          49.400
 122518131.156 6  95468716.88844  23314411.125
  23314414.230          41.100          25.000
 128350692.166 6 100013615.18843  24424294.148
  24424297.445          39.400          18.600
 114522277.852 7  89238256.297 7  21792836.766    21792842.125
  21792842.406          47.800          47.100
 131549619.418 6 102506236.858 6  25033060.922    25033069.934
  25033069.766          36.900          36.900
 127749485.712 6  99545103.54443  24309915.078
  24309920.410          39.500          21.700
 108943198.479 8  84890669.044 8  20731134.531    20731139.824
  20731139.434          48.900          48.800
 112850102.307 7  87935224.25245  21474638.789
  21474639.570          47.800          35.100
 16  2 13  0 54  0.0000000  0 10G30G07G08G11G16G27G01G28G09G23
 124058007.584 6  96668617.447 6  23607445.977    23607452.715
  23607452.711          41.600          41.300
 112919363.291 8  87989164.936 7  21487819.820    21487822.523
  21487822.734          48.600          45.900
 107685276.149 8  83910705.123 8  20491798.969    20491804.598
  20491803.973          51.000          49.600
 122426464.120 7  95397288.05044  23296968.688
  23296970.504          43.400          25.500
 128434777.103 6 100079135.91343  24440296.813
  24440298.730          40.500          22.200
 114591739.241 8  89292382.057 7  21806055.758    21806060.609
  21806060.418          48.400          46.000
 131467408.959 5 102442176.882 5  25017417.523    25017424.684
  25017425.750          34.400          34.600
 127691718.798 6  99500090.49443  24298922.906
  24298926.844          41.200          20.600
 108968544.579 8  84910419.238 8  20735957.813    20735962.898
  20735962.645          48.500          48.700
 112932944.456 7  87999776.57945  21490402.313
  21490404.559          47.900          35.800
 16  2 13  0 54 30.0000000  0 10G30G07G08G11G16G27G01G28G09G23
 123975775.004 6  96604540.210 6  23591796.445    23591804.504
  23591804.762          39.000          41.700
 112854538.518 7  87938652.150 7  21475483.852    21475486.973
  21475487.176          47.600          46.000
 107695429.817 8  83918617.089 8  20493731.336    20493736.570
  20493736.129          51.200          49.600
 122334892.846 6  95325933.85444  23279541.992
  23279546.863          41.500          26.800
 128518779.652 6 100144592.43243  24456281.711
  24456285.336          40.200          21.800
 114661631.380 8  89346843.474 7  21819355.406    21819360.512
  21819360.121          48.200          46.400
 131385016.250 5 102377974.869 5  25001736.859    25001746.711
  25001747.172          32.400          35.900
 127634135.611 6  99455220.56643  24287964.625
  24287967.629          40.100          19.600
 108994461.799 7  84930614.454 8  20740889.531    20740895.129
  20740895.504          47.500          49.400
 113016175.028 7  88064631.53845  21506240.555
  21506243.184          46.100          35.300
 16  2 13  0 55  0.0000000  0 10G30G07G08G11G16G27G01G28G09G23
 123893523.294 6  96540448.089 6  23576145.281    23576153.043
  23576152.793          40.800          41.900
 112789833.196 7  87888232.465 7  21463169.969    21463173.613
  21463173.922          47.000          45.800
 107706154.897 8  83926974.314 8  20495771.844    20495777.375
  20495776.695          51.200          49.600
 122243420.666 6  95254656.92444  23262135.719
  23262139.980          41.300          26.000
 128602700.042 6 100209984.89643  24472249.953
  24472254.492          37.900          19.300
 114731951.831 8  89401638.631 7  21832736.906    21832742.313
  21832742.457          48.000          46.700
 131302444.023 6 102313632.916 5  24986025.703    24986032.289
  24986033.230          37.900          33.600
 127576735.751 6  99410493.46143  24277041.633
  24277043.367          38.700          19.600
 109020949.186 7  84951253.961 8  20745929.820    20745935.246
  20745935.602          47.800          49.500
 113099791.305 8  88129787.06845  21522152.695
  21522154.473          48.900          35.300
 16  2 13  0 55 30.0000000  0 10G30G07G08G11G16G27G01G28G09G23
 123811253.285 7  96476341.627 6  23560489.641    23560496.020
  23560495.230          42.900          39.000
 112725248.827 7  87837907.028 7  21450880.453    21450883.602
  21450883.414          47.400          45.200
 107717450.623 8  83935776.196 8  20497921.867    20497927.129
  20497926.586          51.300          49.800
 122152050.289 7  95183459.25844  23244749.383
  23244751.750          43.600          26.100
 128686537.199 6 100275312.56043  24488204.125
  24488206.523          39.600          19.600
 114802697.750 8  89456765.306 7  21846199.727    21846204.141
  21846204.602          48.100          46.900
 131219694.420 6 102249152.794 6  24970278.359    24970287.719
  24970287.914          36.900          37.600
 127519518.525 6  99365908.71343  24266153.180
  24266156.871          40.500          20.400
 109048005.512 8  84972336.804 8  20751078.969    20751084.020
  20751084.430          48.800          50.000
 113183790.319 7  88195240.83445  21538136.828
  21538138.441          47.400          34.600
 16  2 13  0 56  0.0000000  0 10G30G07G08G11G16G27G01G28G09G23
 123728965.791 6  96412221.528 6  23544830.789    23544838.012
  23544837.262          40.900          40.500
 112660786.830 7  87787676.911 7  21438613.508    21438616.465
  21438615.797          47.800          44.600
 107729315.808 8  83945021.808 8  20500179.313    20500184.871
  20500184.230          51.400          49.500
 122060784.578 7  95112343.11544  23227381.750
  23227384.012          42.400          25.100
 128770290.090 6 100340574.59043  24504142.852
  24504145.164          41.200          21.300
 114873866.424 8  89512221.406 7  21859742.438    21859747.273
  21859747.195          48.300          45.700
 131136769.653 5 102184536.195 5  24954497.781    24954505.793
  24954507.289          35.200          35.500
 127462483.417 6  99321465.85943  24255300.141
  24255304.613          41.100          21.100
 109075629.465 7  84993861.948 8  20756335.063    20756340.070
  20756340.523          47.800          48.800
 113268169.210 8  88260990.58645  21554193.977
  21554196.105          48.600          35.000
 16  2 13  0 56 30.0000000  0 10G30G07G08G11G16G27G01G28G09G23
 123646662.452 7  96348089.171 7  23529169.164    23529176.836
  23529177.250          42.300          43.000
 112596449.703 7  87737544.096 7  21426371.039    21426373.945
  21426373.996          47.900          45.200
 107741750.439 8  83954711.137 8  20502545.570    20502550.680
  20502550.078          51.100          49.800
 121969627.011 6  95041311.31544  23210034.289
  23210038.660          40.800          25.600
 128853959.005 6 100405771.15043  24520063.500
  24520067.363          38.900          20.400
 114945455.879 8  89568005.418 7  21873365.281    21873370.496
  21873369.848          48.400          46.100
 131053672.792 6 102119785.464 5  24938685.555    24938693.594
  24938693.926          36.900          34.700
 127405630.781 6  99277165.21043  24244480.844
  24244484.945          39.500          19.600
 109103820.561 8  85015829.021 8  20761700.000    20761705.191
  20761705.371          48.300          49.500
 113352925.614 7  88327034.52345  21570322.359
  21570324.543          47.600          34.900
 16  2 13  0 57  0.0000000  0 10G30G07G08G11G16G27G01G28G09G23
 123564343.743 7  96283944.812 7  23513504.648    23513511.621
  23513511.477          44.200          42.000
 112532238.787 7  87687509.646 7  21414151.727    21414155.090
  21414155.773          47.600          45.600
 107754752.866 8  83964842.927 8  20505019.891    20505025.109
  20505024.668          51.200          49.100
 121878580.130 7  94970365.76744  23192709.953
  23192712.672          43.900          28.700
 128937542.553 6 100470901.13543  24535968.125
  24535973.191          38.600          18.300
 115017462.942 7  89624114.814 7  21887067.719    21887073.023
  21887072.859          47.200          47.300
 130970405.652 6 102054902.025 5  24922840.719    24922846.359
  24922847.508          38.900          33.200
 127348959.498 6  99233005.85143  24233696.055
  24233699.930          39.100          20.100
 109132577.129 8  85038236.730 8  20767172.180    20767177.324
  20767177.023          48.600          49.100
 113438056.495 7  88393370.24045  21586522.063
  21586523.414          47.900          34.200
 16  2 13  0 57 30.0000000  0 10G30G07G08G11G16G27G01G28G09G23
 123482011.189 7  96219789.624 6  23497835.750    23497843.883
  23497842.652          42.000          39.800
 112468156.363 8  87637575.350 7  21401957.813    21401960.652
  21401961.273          48.000          46.100
 107768322.730 8  83975416.867 8  20507602.258    20507607.750
  20507607.191          51.100          49.400
 121787647.117 7  94899508.87844  23175405.258
  23175407.258          42.600          26.700
 129021040.762 6 100535964.65043  24551858.664
  24551861.453          40.500          19.900
 115089885.478 7  89680547.945 7  21900849.547    21900854.887
  21900855.258          47.800          47.100
 130886971.144 6 101989888.100 6  24906963.414    24906971.215
  24906971.719          37.800          37.000
 127292469.583 6  99188987.78843  24222946.547
  24222949.473          39.700          20.100
 109161898.436 8  85061084.486 8  20772751.836    20772757.148
  20772756.781          48.100          48.900
 113523559.301 8  88459995.79745  21602793.523
  21602795.305          48.300          34.800
 16  2 13  0 58  0.0000000  0 10G30G07G08G11G16G27G01G28G09G23
 123399665.412 7  96155624.142 6  23482166.586    23482173.441
  23482172.512          42.100          40.300
 112404203.865 8  87587742.259 7  21389787.586    21389790.680
  21389790.793          49.000          45.500
 107782458.779 8  83986431.974 8  20510292.164    20510297.090
  20510296.637          50.600          49.500
 121696830.732 7  94828742.89844  23158121.867
  23158125.371          42.200          25.600
 129104452.356 6 100600960.78043  24567730.703
  24567733.402          38.800          19.300
 115162720.499 7  89737302.497 7  21914709.445    21914714.262
  21914714.336          47.300          46.600
 130803371.203 6 101924745.434 6  24891054.047    24891063.066
  24891062.594          36.600          39.100
 127236160.186 6  99145110.43443  24212230.844
  24212234.805          38.800          20.900
 109191782.971 8  85084371.124 8  20778438.391    20778443.992
  20778443.398          49.000          49.000
 113609430.749 8  88526908.59645  21619133.797
  21619136.063          48.200          35.000
 16  2 13  0 58 30.0000000  0 10G30G07G08G11G16G27G01G28G09G23
 123317308.136 7  96091449.716 7  23466495.438    23466502.340
  23466502.531          44.500          42.100
 112340383.645 8  87538012.231 7  21377643.500    21377645.770
  21377645.184          49.000          45.000
 107797160.661 8  83997888.003 8  20513089.898    20513095.051
  20513094.594          50.800          49.500
 121606134.574 7  94758070.64344  23140864.539
  23140868.945          42.200          27.200
 129187777.767 6 100665889.66043  24583586.961
  24583590.371          38.600          18.300
 115235965.944 7  89794376.884 7  21928647.609    21928653.055
  21928652.355          47.500          45.500
 130719609.083 6 101859476.362 6  24875116.000    24875123.547
  24875123.992          38.900          36.700
 127180031.601 6  99101373.98743  24201549.539
  24201554.195          39.400          19.600
 109222230.118 8  85108096.169 8  20784232.344    20784238.078
  20784237.723          48.500          49.100
 113695669.069 7  88594107.25145  21635544.070
  21635546.016          47.300          34.200
 16  2 13  0 59  0.0000000  0 10G30G07G08G11G16G27G01G28G09G23
 123234939.562 7  96027266.499 7  23450820.367    23450828.051
  23450828.059          43.000          42.200
 112276696.887 7  87488386.207 7  21365523.563    21365526.430
  21365525.930          47.900          45.500
 107812426.404 8  84009783.395 8  20515994.281    20515999.805
  20515999.367          50.900          48.900
 121515560.684 7  94687493.59644  23123629.500
  23123632.012          42.600          27.900
 129271015.409 6 100730750.10843  24599426.289
  24599430.098          37.800          19.000
 115309618.419 7  89851768.420 7  21942663.258    21942668.723
  21942668.320          46.900          46.300
 130635686.384 6 101794082.015 5  24859146.109    24859152.566
  24859153.078          39.700          33.600
 127124082.451 6  99057777.36643  24190903.430
  24190906.898          39.200          19.600
 109253237.746 8  85132257.943 8  20790133.289    20790138.129
  20790138.313          48.900          50.000
 113782270.071 7  88661588.55445  21652024.484
  21652025.461          47.800          35.800
 16  2 13  0 59 30.0000000  0 10G30G07G08G11G16G27G01G28G09G23
 123152561.144 7  95963075.618 6  23435143.547    23435150.855
  23435150.262          42.100          39.900
 112213145.480 8  87438865.664 7  21353430.508    21353433.426
  21353433.547          48.600          45.900
 107828255.720 8  84022117.934 8  20519006.680    20519012.848
  20519012.090          50.300          49.400
 121425113.087 6  94617014.98844  23106416.266
  23106418.977          41.300          26.900
 129354165.185 6 100795542.19543  24615250.461
  24615252.555          40.700          19.600
 115383675.717 7  89909475.392 7  21956756.258    21956761.340
  21956761.730          47.400          46.800
 130551605.872 5 101728564.769 6  24843144.219    24843154.000
  24843153.684          34.900          38.900
 127068312.871 6  99014320.60243  24180290.898
  24180293.840          39.400          19.300
 109284805.086 8  85156855.860 8  20796140.063    20796145.375
  20796145.598          49.600          50.000
 113869231.555 7  88729350.72845  21668572.109
  21668574.715          47.200          34.900
 16  2 13  1  0  0.0000000  0 10G30G07G08G11G16G27G01G28G09G23
 123070174.051 7  95898877.896 6  23419467.258    23419472.508
  23419472.023          44.200          40.800
 112149731.396 8  87389452.126 7  21341363.789    21341366.223
  21341366.777          48.700          46.100
 107844647.406 8  84034890.719 8  20522125.891    20522131.586
  20522131.090          50.000          48.800
 121334794.254 7  94546636.71044  23089229.781
  23089232.578          42.500          26.200
 129437226.384 6 100860265.23943  24631055.789
  24631058.918          38.700          19.000
 115458135.099 7  89967495.684 7  21970924.898    21970930.277
  21970930.547          47.300          45.400
 130467370.066 6 101662926.615 6  24827115.352    24827123.977
  24827124.477          36.000          38.000
 127012722.191 6  98971003.23343  24169711.875
  24169715.172          38.800          19.600
 109316930.853 8  85181888.916 8  20802253.750    20802258.840
  20802259.379          48.800          49.800
 113956550.698 8  88797391.57345  21685188.719
  21685190.191          48.300          34.400
 16  2 13  1  0 30.0000000  0 10G30G07G08G11G16G27G01G28G09G23
 122987779.605 7  95834674.489 7  23403787.719    23403794.754
  23403794.938          43.200          43.100
 112086457.033 8  87340147.466 7  21329322.578    21329325.172
  21329325.652          49.300          46.100
 107861600.534 8  84048100.958 8  20525351.961    20525357.371
  20525356.941          50.200          48.700
 121244607.367 7  94476361.25744  23072068.336
  23072071.934          43.300          26.700
 129520198.848 6 100924919.09642  24646844.070
  24646848.281          39.000          17.400
 115532994.218 7  90025827.463 7  21985169.781    21985174.871
  21985174.504          46.600          45.100
 130382981.753 6 101597169.570 6  24811058.180    24811065.254
  24811065.148          39.200          38.100
 126957310.156 6  98927825.12943  24159166.547
  24159171.918          38.800          20.100
 109349613.965 8  85207356.253 8  20808472.828    20808478.391
  20808479.145          48.700          49.900
 114044224.843 8  88865709.09445  21701873.047
  21701873.656          48.400          34.700
 16  2 13  1  1  0.0000000  0 10G30G07G08G11G16G27G01G28G09G23
 122905378.655 7  95770466.058 7  23388106.500    23388114.977
  23388114.625          42.300          42.500
 112023323.616 8  87290952.622 7  21317308.117    21317311.129
  21317310.906          48.300          45.300
 107879114.220 8  84061748.003 8  20528684.711    20528690.199
  20528689.480          49.600          49.100
 121154555.458 6  94406190.98644  23054930.844
  23054934.961          41.700          25.900
 129603081.619 6 100989503.02243  24662617.188
  24662619.895          40.800          19.600
 115608250.175 7  90084468.471 7  21999491.086    21999495.813
  21999495.316          47.100          46.100
 130298443.284 6 101531295.504 6  24794970.078    24794978.398
  24794978.613          37.000          37.100
 126902075.815 6  98884785.50943  24148656.852
  24148660.707          40.200          21.100
 109382852.862 8  85233256.676 8  20814797.797    20814803.742
  20814804.039          49.100          49.200
 114132251.006 7  88934300.89545  21718622.836
  21718625.707          46.900          34.900
 16  2 13  1  1 30.0000000  0 10G30G07G08G11G16G27G01G28G09G23
 122822972.156 7  95706253.277 6  23372426.141    23372432.070
  23372431.484          43.800          40.100
 111960332.760 8  87241868.865 7  21305321.602    21305324.434
  21305323.883          48.500          45.000
 107897186.596 8  84075830.383 8  20532123.234    20532128.828
  20532128.273          49.400          49.100
 121064641.086 7  94336127.88744  23037821.523
  23037822.961          42.600          26.200
 129685874.462 6 101054016.95043  24678372.070
  24678374.277          40.800          18.300
 115683900.106 7  90143416.475 7  22013886.766    22013891.973
  22013892.320          47.600          46.300
 130213756.819 5 101465306.062 5  24778853.469    24778860.344
  24778861.215          35.800          33.700
 126847019.005 6  98841884.20143  24138179.984
  24138183.109          41.400          20.400
 109416646.006 8  85259588.980 8  20821228.891    20821233.941
  20821233.828          48.600          49.600
 114220625.857 7  89003164.39545  21735441.258
  21735442.645          47.300          34.200
 16  2 13  1  2  0.0000000  0 10G30G07G08G11G16G27G01G28G09G23
 122740561.781 7  95642037.391 6  23356744.008    23356749.926
  23356749.277          43.400          40.900
 111897487.208 8  87192898.326 7  21293362.883    21293365.449
  21293365.164          48.200          45.700
 107915817.578 8  84090348.044 8  20535669.297    20535674.723
  20535674.043          49.900          48.900
 120974868.144 7  94266174.95644  23020738.109
  23020740.555          43.900          28.100
 129768577.321 6 101118460.79742  24694109.367
  24694111.699          38.200          16.300
 115759941.823 7  90202669.739 7  22028356.578    22028362.223
  22028362.547          46.900          46.000
 130128925.395 6 101399203.753 6  24762712.375    24762720.383
  24762720.543          39.200          39.300
 126792139.539 6  98799121.01243  24127735.539
  24127739.184          40.100          19.900
 109450992.509 8  85286352.471 8  20827764.969    20827770.441
  20827769.824          48.900          48.200
 114309347.420 7  89072298.06745  21752323.742
  21752325.008          47.500          34.200
 16  2 13  1  2 30.0000000  0 10G30G07G08G11G16G27G01G28G09G23
 122658148.029 6  95577818.951 7  23341059.492    23341067.652
  23341067.391          40.400          42.800
 111834788.009 7  87144041.841 7  21281430.969    21281434.012
  21281434.211          47.800          45.300
 107935005.180 8  84105299.427 8  20539320.016    20539325.844
  20539325.348          49.800          49.000
 120885238.893 7  94196334.01144  23003681.953
  23003686.133          42.700          26.900
 129851188.664 6 101182833.22242  24709829.852
  24709833.086          37.700          17.400
 115836372.114 7  90262225.798 7  22042901.148    22042905.531
  22042905.309          47.500          44.900
 130043951.107 6 101332990.114 6  24746542.281    24746550.512
  24746550.820          39.200          39.900
 126737436.175 6  98756495.11643  24117325.711
  24117329.363          39.800          19.000
 109485890.330 8  85313545.588 8  20834405.922    20834410.730
  20834410.324          50.100          48.900
 114398412.001 7  89141699.02845  21769272.109
  21769274.168          47.600          34.600
 16  2 13  1  3  0.0000000  0 10G30G07G08G11G16G27G01G28G09G23
 122575732.576 7  95513599.215 7  23325377.836    23325384.195
  23325384.758          42.800          42.900
 111772237.720 7  87095301.386 7  21269528.313    21269531.348
  21269531.676          47.300          46.000
 107954748.625 8  84120683.947 8  20543077.195    20543082.734
  20543082.461          50.200          49.200
 120795756.816 7  94126607.76644  22986653.859
  22986657.785          42.600          26.500
 129933708.806 6 101247134.61343  24725532.938
  24725536.500          40.000          20.400
 115913188.826 7  90322083.007 7  22057518.805    22057523.746
  22057522.801          47.300          45.100
 129958836.924 6 101266667.471 6  24730344.336    24730352.723
  24730353.035          36.600          36.000
 126682909.072 6  98714006.56643  24106950.414
  24106954.664          41.400          20.900
 109521338.739 8  85341167.728 8  20841151.352    20841156.617
  20841156.492          49.900          49.500
 114487817.308 7  89211365.47745  21786285.773
  21786288.117          47.800          34.400
 16  2 13  1  3 30.0000000  0 10G30G07G08G11G16G27G01G28G09G23
 122493316.458 7  95449378.923 6  23309694.305    23309700.676
  23309699.949          44.000          40.900
 111709838.131 7  87046678.366 7  21257653.734    21257656.406
  21257656.395          47.000          45.200
 107975046.806 8  84136500.726 8  20546939.789    20546945.184
  20546944.906          50.200          49.100
 120706424.718 7  94056998.37244  22969656.016
  22969656.801          43.900          26.700
 130016137.151 6 101311364.48343  24741218.773
  24741222.625          36.700          18.300
 115990389.011 7  90382239.002 7  22072209.016    22072214.836
  22072214.949          47.200          46.200
 129873585.103 6 101200237.528 5  24714122.109    24714128.551
  24714129.234          36.900          34.800
 126628557.368 6  98671654.66943  24096608.500
  24096611.992          41.400          22.800
 109557335.901 8  85369217.456 8  20848000.766    20848006.543
  20848006.750          50.100          49.900
 114577559.988 7  89281294.80645  21803363.102
  21803364.184          47.400          33.500
 16  2 13  1  4  0.0000000  0 10G30G07G08G11G16G27G01G28G09G23
 122410900.680 6  95385158.841 6  23294010.344    23294017.418
  23294016.070          41.800          40.900
 111647590.865 8  86998174.016 7  21245808.898    21245811.563
  21245811.305          48.000          45.400
 107995898.276 8  84152748.634 8  20550907.922    20550913.098
  20550912.637          50.500          48.700
 120617245.881 7  93987508.37844  22952684.398
  22952687.273          43.400          26.800
 130098473.084 6 101375522.31642  24756886.000
  24756889.188          36.500          16.300
 116067969.914 7  90442691.621 7  22086972.656    22086977.711
  22086978.191          47.200          46.200
 129788198.382 6 101133702.405 6  24697873.648    24697881.051
  24697881.133          37.700          38.100
 126574380.405 6  98629438.93443  24086297.984
  24086302.156          40.500          20.900
 109593880.378 8  85397693.656 8  20854955.414    20854960.660
  20854961.508          49.700          49.300
 114667637.098 7  89351484.76345  21820504.539
  21820505.637          47.200          33.700
 16  2 13  1  4 30.0000000  0 10G30G07G08G11G16G27G01G28G09G23
 122328486.658 7  95320940.187 6  23278328.055    23278334.973
  23278335.105          44.000          41.800
 111585498.043 7  86949790.023 7  21233992.875    21233995.617
  21233995.074          47.500          46.100
 108017302.072 8  84169426.942 8  20554980.797    20554986.723
  20554986.234          50.300          49.000
 120528223.161 7  93918140.08044  22935743.188
  22935747.543          43.200          25.800
 130180715.986 6 101439607.72742  24772537.383
  24772538.617          38.400          16.300
 116145929.038 7  90503438.988 7  22101807.961    22101812.297
  22101811.770          47.000          45.100
 129702679.329 5 101067064.263 6  24681598.969    24681607.918
  24681608.398          34.600          40.500
 126520378.049 6  98587359.27843  24076020.141
  24076024.340          38.500          19.000
 109630970.864 8  85426595.310 8  20862013.570    20862019.152
  20862019.910          49.700          49.700
 114758045.822 7  89421933.09745  21837708.406
  21837711.109          46.700          34.300
 16  2 13  1  5  0.0000000  0 10G30G07G08G11G16G27G01G28G09G23
 122246075.540 7  95256723.801 7  23262646.352    23262652.773
  23262653.004          44.900          43.000
 111523561.653 7  86901527.935 7  21222206.484    21222209.246
  21222209.480          46.900          45.700
 108039256.958 8  84186534.654 8  20559158.563    20559164.121
  20559163.828          50.200          49.100
 120439359.637 7  93848895.81844  22918834.008
  22918837.449          42.200          26.500
 130262865.742 6 101503620.54443  24788170.203
  24788173.379          38.100          18.300
 116224263.602 7  90564478.941 7  22116714.016    22116719.453
  22116718.266          46.900          45.000
 129617030.505 5 101000325.063 6  24665299.852    24665308.297
  24665308.719          34.300          37.300
 126466549.796 6  98545415.27043  24065778.758
  24065781.016          39.700          19.300
 109668605.761 8  85455921.189 8  20869175.297    20869180.570
  20869181.012          50.000          50.200
 114848783.557 7  89492637.78345  21854975.320
  21854977.297          46.800          33.700
 16  2 13  1  5 30.0000000  0 10G30G07G08G11G16G27G01G28G09G23
 122163668.523 7  95192510.605 6  23246964.258    23246969.977
  23246969.980          42.600          41.700
 111461783.602 7  86853389.231 7  21210450.578    21210453.512
  21210453.512          47.600          46.000
 108061761.693 8  84204070.820 8  20563441.383    20563446.480
  20563446.113          50.200          49.300
 120350658.422 7  93779778.01744  22901954.375
  22901957.461          43.600          26.200
 130344921.951 6 101567560.38642  24803784.805
  24803788.688          37.500          17.800
 116302970.868 7  90625809.266 7  22131692.180    22131697.586
  22131697.660          47.200          46.600
 129531254.501 6 100933486.656 6  24648978.969    24648985.332
  24648985.980          38.100          36.400
 126412894.726 6  98503606.19143  24055568.617
  24055571.789          40.900          21.800
 109706783.476 8  85485670.053 8  20876440.539    20876445.488
  20876445.383          50.500          49.300
 114939847.288 7  89563596.54845  21872304.539
  21872304.559          47.500          33.600
 16  2 13  1  6  0.0000000  0 10G30G07G08G11G16G27G01G28G09G23
 122081266.820 7  95128301.522 6  23231283.836    23231289.543
  23231288.895          42.200          40.800
 111400165.780 7  86805375.369 7  21198725.352    21198728.207
  21198728.074          47.600          45.200
 108084814.947 8  84222034.413 8  20567828.195    20567833.469
  20567832.973          49.200          50.000
 120262122.557 7  93710789.04244  22885106.391
  22885110.352          43.700          28.700
 130426884.386 6 101631427.19642  24819381.469
  24819385.164          36.900          14.800
 116382048.229 7  90687427.978 7  22146740.148    22146745.270
  22146745.691          47.600          46.700
 129445354.067 6 100866551.221 6  24632631.211    24632639.527
  24632639.305          36.400          37.000
 126359412.282 6  98461931.65343  24045390.977
  24045394.754          40.900          22.500
 109745502.540 8  85515840.757 8  20883808.633    20883813.766
  20883813.426          49.100          48.800
 115031234.089 7  89634807.02545  21889693.859
  21889696.750          45.800          33.500
 16  2 13  1  6 30.0000000  0 10G30G07G08G11G16G27G01G28G09G23
 121998871.774 7  95064097.632 7  23215605.055    23215611.063
  23215610.563          43.100          42.200
 111338710.134 7  86757487.866 7  21187030.172    21187033.449
  21187033.188          46.100          45.800
 108108415.519 8  84240424.481 8  20572319.047    20572324.926
  20572324.551          48.200          49.100
 120173755.046 7  93641931.29644  22868291.688
  22868294.965          43.900          28.600
 130508752.310 6 101695220.49942  24834960.805
  24834962.461          38.700          16.300
 116461493.027 7  90749332.998 7  22161857.500    22161862.797
  22161862.602          47.300          45.900
 129359331.656 5 100799520.895 6  24616260.977    24616270.316
  24616270.379          34.600          38.400
 126306102.086 6  98420391.36043  24035244.781
  24035249.316          39.000          19.600
 109784761.457 8  85546432.122 8  20891279.141    20891284.281
  20891283.727          48.900          49.300
 115122941.187 7  89706267.05545  21907146.086
  21907148.398          47.500          34.200
 16  2 13  1  7  0.0000000  0 10G30G07G08G11G16G27G01G28G09G23
 121916484.205 7  94999899.603 7  23199925.438    23199933.316
  23199932.926          43.200          42.800
 111277418.399 7  86709728.101 7  21175367.063    21175370.160
  21175370.262          47.400          45.600
 108132561.581 8  84259239.608 8  20576913.766    20576919.293
  20576918.633          49.500          49.400
 120085558.648 7  93573206.85544  22851507.328
  22851510.398          42.600          27.600
 130590524.925 6 101758939.36742  24850520.977
  24850523.758          36.400          16.900
 116541302.105 7  90811521.908 7  22177044.852    22177049.840
  22177048.727          47.100          44.600
 129273189.808 6 100732397.450 6  24599870.484    24599877.602
  24599878.059          36.900          37.800
 126252963.454 6  98378984.67743  24025133.539
  24025137.066          40.600          20.900
 109824558.183 8  85577442.550 8  20898852.531    20898857.730
  20898857.445          50.400          49.600
 115214965.027 7  89777973.94645  21924656.805
  21924657.785          46.700          33.000
 16  2 13  1  7 30.0000000  0 10G30G07G08G11G16G27G01G28G09G23
 121834105.737 7  94935708.661 7  23184249.906    23184256.887
  23184256.316          42.100          42.000
 111216293.161 7  86662098.079 7  21163735.195    21163737.855
  21163738.445          47.500          45.900
 108157252.457 8  84278479.261 8  20581612.102    20581618.047
  20581617.598          49.600          49.400
 119997536.695 7  93504618.34444  22834757.563
  22834760.395          44.700          28.200
 130672202.348 5 101822584.02042  24866063.500
  24866067.621          35.400          17.400
 116621473.135 7  90873992.850 7  22192300.805    22192306.445
  22192306.375          47.400          45.900
 129186931.382 6 100665183.122 5  24583455.281    24583462.246
  24583462.352          36.900          35.400
 126199996.169 7  98337711.51843  24015055.242
  24015057.723          42.000          20.600
 109864891.520 8  85608871.104 8  20906527.102    20906532.641
  20906533.141          49.600          49.400
 115307303.067 7  89849925.65045  21942228.492
  21942230.711          47.200          32.900
 16  2 13  1  8  0.0000000  0 10G30G07G08G11G16G27G01G28G09G23
 121751737.692 7  94871525.785 7  23168576.109    23168582.164
  23168581.559          44.600          42.000
 111155335.853 7  86614598.898 7  21152135.711    21152138.102
  21152138.445          47.600          46.400
 108182486.459 8  84298142.127 8  20586413.977    20586419.801
  20586419.188          48.800          48.800
 119909692.420 7  93436168.29644  22818040.961
  22818045.355          43.800          29.000
 130753784.156 6 101886154.26043  24881588.641
  24881592.273          37.900          18.600
 116702003.404 7  90936743.683 7  22207624.672    22207631.164
  22207631.867          46.900          46.000
 129100559.074 6 100597880.053 5  24567019.359    24567027.324
  24567027.125          36.700          35.900
 126147199.483 6  98296571.32343  24005008.023
  24005011.156          40.900          22.200
 109905759.825 8  85640716.515 8  20914304.477    20914309.531
  20914310.250          50.300          50.000
 115399952.080 7  89922119.66145  21959859.266
  21959862.086          47.500          33.700
 16  2 13  1  8 30.0000000  0 10G30G07G08G11G16G27G01G28G09G23
 121669381.331 7  94807352.040 7  23152903.938    23152910.664
  23152910.543          43.100          42.800
 111094548.574 7  86567232.215 7  21140568.188    21140571.016
  21140570.898          47.700          45.800
 108208262.541 8  84318227.402 8  20591319.188    20591324.914
  20591324.629          49.100          48.900
 119822028.795 7  93367859.01044  22801359.375
  22801363.609          42.900          28.500
 130835269.962 6 101949649.65542  24897095.172
  24897097.734          39.200          14.800
 116782890.243 7  90999772.365 7  22223017.445    22223022.707
  22223022.773          47.200          45.300
 129014075.550 6 100530490.383 6  24550562.352    24550570.145
  24550569.934          36.500          38.600
 126094572.949 6  98255563.72343  23994991.789
  23994997.340          40.500          20.900
 109947161.432 8  85672977.495 8  20922183.227    20922188.180
  20922188.637          50.800          49.300
 115492909.414 7  89994553.91645  21977548.148
  21977549.711          45.900          32.100
 16  2 13  1  9  0.0000000  0 10G30G07G08G11G16G27G01G28G09G23
 121587037.608 7  94743188.197 7  23137234.000    23137241.664
  23137241.398          42.300          43.000
 111033933.257 7  86519999.514 7  21129033.734    21129036.148
  21129035.938          47.200          45.700
 108234578.813 8  84338733.595 8  20596326.656    20596333.219
  20596332.516          49.600          49.100
 119734548.450 7  93299692.55844  22784712.570
  22784715.352          44.300          28.800
 130916659.169 6 102013069.80942  24912582.977
  24912585.137          37.000          14.800
 116864130.490 7  91063076.479 7  22238476.859    22238482.590
  22238481.770          47.500          44.800
 128927483.182 6 100463015.900 6  24534084.469    24534092.176
  24534092.500          38.400          38.400
 126042115.432 6  98214687.84843  23985010.281
  23985013.953          40.600          20.900
 109989094.357 8  85705652.494 8  20930162.258    20930167.613
  20930167.758          50.200          48.600
 115586171.837 7  90067225.93145  21995295.672
  21995297.219          47.200          33.900
 16  2 13  1  9 30.0000000  0 10G30G07G08G11G16G27G01G28G09G23
 121504708.283 7  94679035.519 7  23121568.125    23121574.457
  23121573.605          43.900          42.300
 110973492.402 7  86472902.766 7  21117531.766    21117534.504
  21117534.648          47.700          46.800
 108261434.173 8  84359659.861 8  20601437.281    20601443.277
  20601442.543          48.800          49.600
 119647255.291 7  93231671.90744  22768101.867
  22768103.551          44.600          29.000
 130997952.108 6 102076414.96743  24928051.703
  24928055.703          38.900          18.300
 116945721.989 7  91126654.285 7  22254003.438    22254008.996
  22254009.059          47.500          46.100
 128840785.096 6 100395458.956 5  24517585.648    24517592.703
  24517592.875          36.500          34.600
 125989826.887 6  98173943.57343  23975060.484
  23975062.938          41.700          19.900
 110031557.360 8  85738740.555 8  20938243.109    20938247.875
  20938247.453          50.200          48.300
 115679736.579 7  90140133.50745  22013100.172
  22013103.094          47.000          33.200
 16  2 13  1 10  0.0000000  0 10G30G07G08G11G16G27G01G28G09G23
 121422394.168 7  94614894.667 6  23105903.781    23105909.746
  23105909.059          43.600          41.900
 110913227.332 7  86425942.994 7  21106063.586    21106066.859
  21106067.398          47.000          46.400
 108288827.017 8  84381004.948 8  20606649.953    20606655.828
  20606655.352          48.200          49.100
 119560151.449 7  93163798.79144  22751525.656
  22751529.734          43.200          29.900
 131079147.610 6 102139684.14043  24943503.547
  24943507.078          38.300          18.600
 117027661.417 7  91190503.151 7  22269596.086    22269601.852
  22269602.367          47.600          46.200
 128753983.431 5 100327821.338 6  24501068.180    24501075.645
  24501075.344          35.500          37.600
 125937706.057 6  98133329.95943  23965142.156
  23965143.836          40.800          19.900
 110074548.142 8  85772239.861 8  20946423.508    20946428.824
  20946428.238          50.000          48.500
 115773600.499 7  90213274.19445  22030961.719
  22030964.195          46.400          31.800
 16  2 13  1 10 30.0000000  0 10G30G07G08G11G16G27G01G28G09G23
 121340097.194 7  94550767.228 7  23090243.125    23090250.234
  23090250.129          42.800          43.500
 110853140.608 7  86379122.206 7  21094629.578    21094632.328
  21094632.688          47.600          46.300
 108316756.130 8  84402767.898 8  20611964.594    20611970.586
  20611970.152          49.500          49.400
 119473240.853 7  93096076.31444  22734986.703
  22734992.066          43.000          29.700
 131160245.799 5 102202877.50342  24958935.391
  24958939.313          35.400          16.900
 117109946.683 8  91254621.540 7  22285254.500    22285259.289
  22285259.375          48.200          45.400
 128667081.730 6 100260105.797 6  24484531.734    24484539.172
  24484539.754          37.700          38.100
 125885753.298 6  98092847.37243  23955255.547
  23955258.551          40.800          21.500
 110118065.652 8  85806149.592 8  20954704.797    20954709.594
  20954709.746          50.200          49.200
 115867761.045 7  90286646.06445  22048880.148
  22048881.180          47.300          32.500
 16  2 13  1 11  0.0000000  0 10G30G07G08G11G16G27G01G28G09G23
 121257818.183 7  94486653.788 7  23074586.563    23074593.566
  23074593.266          43.700          42.900
 110793233.985 7  86332441.748 7  21083229.672    21083232.473
  21083232.477          46.900          46.300
 108345219.905 8  84424947.480 8  20617381.180    20617387.387
  20617387.031          49.400          50.000
 119386526.095 7  93028506.42445  22718486.656
  22718489.543          45.000          31.200
 131241246.466 5 102265994.90542  24974349.391
  24974352.609          35.500          16.300
 117192574.560 7  91319006.926 7  22300977.547    22300982.680
  22300982.539          47.600          44.900
 128580082.047 5 100192313.928 6  24467974.773    24467983.707
  24467983.672          35.700          38.600
 125833967.283 6  98052494.72143  23945400.344
  23945404.777          40.000          22.500
 110162107.596 8  85840467.975 8  20963085.758    20963090.621
  20963090.961          50.500          49.300
 115962214.799 7  90360246.37145  22066853.703
  22066856.625          45.800          31.900
 16  2 13  1 11 30.0000000  0 10G30G07G08G11G16G27G01G28G09G23
 121175558.650 7  94422555.502 6  23058932.227    23058939.059
  23058938.492          43.700          41.900
 110733509.779 7  86285903.431 7  21071864.617    21071867.559
  21071867.281          47.400          45.600
 108374216.805 8  84447542.467 8  20622899.344    20622904.895
  20622904.266          49.300          49.900
 119300009.977 7  92961091.26144  22702022.922
  22702024.578          45.000          28.700
 131322149.145 6 102329035.94242  24989745.211
  24989747.645          37.300          17.400
 117275542.465 7  91383657.222 7  22316766.203    22316771.465
  22316771.621          46.500          46.300
 128492987.202 6 100124447.915 6  24451401.461    24451409.836
  24451410.145          36.600          36.600
 125782347.727 6  98012271.76743  23935578.016
  23935582.488          40.700          22.900
 110206672.263 8  85875193.674 8  20971566.133    20971571.418
  20971571.828          50.500          49.800
 116056958.778 7  90434072.79445  22084883.508
  22084885.844          46.800          32.600
 16  2 13  1 12  0.0000000  0 10G30G07G08G11G16G27G01G28G09G23
 121093319.952 7  94358473.436 6  23043282.109    23043289.332
  23043288.238          42.400          41.300
 110673969.662 8  86239508.540 7  21060534.430    21060537.375
  21060537.277          48.200          45.900
 108403745.435 8  84470551.799 8  20628518.313    20628524.145
  20628523.863          49.300          49.500
 119213696.219 7  92893833.81645  22685597.391
  22685600.914          44.300          30.900
 131402953.332 6 102392000.22942  25005121.656
  25005124.930          38.000          17.400
 117358847.648 8  91448570.335 7  22332619.234    22332624.402
  22332624.777          48.200          46.300
 128405800.077 6 100056509.878 6  24434810.789    24434818.109
  24434817.375          36.800          36.900
 125730893.970 6  97972177.98943  23925786.289
  23925790.004          40.200          20.400
 110251758.023 8  85910325.416 8  20980145.352    20980150.512
  20980151.125          49.600          49.000
 116151990.383 7  90508123.39145  22102967.297
  22102968.629          46.700          31.800
 16  2 13  1 12 30.0000000  0 10G30G07G08G11G16G27G01G28G09G23
 121011103.205 7  94294408.491 7  23027638.406    23027643.984
  23027643.785          43.200          43.200
 110614615.272 8  86193258.389 7  21049239.680    21049242.383
  21049242.688          48.800          46.700
 108433803.934 8  84493974.023 8  20634238.750    20634244.121
  20634243.711          49.300          49.600
 119127587.435 7  92826736.11845  22669212.148
  22669216.500          44.700          30.900
 131483658.951 5 102454887.71442  25020478.883
  25020482.367          35.900          16.900
 117442487.038 7  91513743.894 7  22348533.930    22348539.352
  22348539.316          46.800          44.700
 128318523.153 6  99988501.926 6  24418202.922    24418210.156
  24418210.250          36.100          38.900
 125679604.792 6  97932212.45643  23916025.883
  23916028.555          40.600          19.300
 110297362.622 8  85945861.461 8  20988823.563    20988829.539
  20988829.352          49.800          48.100
 116247306.121 7  90582395.36845  22121105.156
  22121107.949          45.900          33.400
 16  2 13  1 13  0.0000000  0 10G30G07G08G11G16G27G01G28G09G23
 120928910.023 7  94230361.911 7  23011996.281    23012003.984
  23012003.777          42.800          43.600
 110555449.197 7  86147154.987 7  21037980.578    21037983.594
  21037983.738          47.300          46.100
 108464390.845 8  84517807.990 8  20640058.875    20640064.426
  20640064.230          49.600          49.100
 119041687.030 7  92759800.77845  22652865.242
  22652869.418          45.100          30.400
 131564265.555 6 102517697.89742  25035817.758
  25035821.004          36.700          16.300
 117526458.280 7  91579176.020 7  22364512.914    22364518.938
  22364518.664          45.800          44.500
 128231159.310 6  99920426.310 6  24401577.773    24401586.133
  24401586.879          36.800          39.700
 125628480.266 6  97892375.17543  23906297.664
  23906300.719          40.200          20.600
 110343484.563 8  85981800.620 8  20997600.563    20997605.840
  20997605.711          50.800          48.100
 116342903.143 7  90656886.52345  22139297.031
  22139299.668          47.000          33.600
 16  2 13  1 13 30.0000000  0 10G30G07G08G11G16G27G01G28G09G23
 120846741.692 7  94166334.716 7  22996360.438    22996366.844
  22996366.531          42.100          42.500
 110496473.910 8  86101200.250 7  21026758.320    21026760.977
  21026761.441          48.600          46.400
 108495504.891 8  84542052.710 8  20645979.813    20645985.090
  20645984.816          49.800          49.600
 118955997.855 7  92693030.01044  22636558.875
  22636561.434          44.200          29.100
 131644772.937 6 102580431.00242  25051138.141
  25051140.438          37.900          14.800
 117610758.456 7  91644864.466 7  22380556.070    22380561.293
  22380561.680          47.300          46.300
 128143711.463 6  99852285.178 6  24384936.188    24384944.258
  24384944.746          36.300          36.000
 125577519.774 6  97852665.79143  23896600.234
  23896604.363          41.100          22.200
 110390121.897 8  86018141.392 8  21006475.102    21006480.184
  21006480.223          50.500          48.600
 116438778.397 7  90731594.49645  22157540.805
  22157542.656          46.900          31.500
 16  2 13  1 14  0.0000000  0 10G30G07G08G11G16G27G01G28G09G23
 120764599.558 7  94102327.879 7  22980729.703    22980735.520
  22980734.676          44.300          42.400
 110437690.506 8  86055395.024 7  21015572.023    21015574.934
  21015574.762          49.100          45.900
 108527144.174 8  84566706.705 8  20652000.563    20652006.313
  20652006.000          49.600          49.400
 118870522.900 7  92626426.17745  22620294.453
  22620296.961          44.500          30.800
 131725180.923 6 102643086.62842  25066439.453
  25066442.172          38.100          17.400
 117695384.754 7  91710807.022 7  22396659.031    22396664.570
  22396664.699          46.600          45.400
 128056182.169 6  99784080.517 6  24368279.813    24368287.141
  24368287.234          37.000          36.600
 125526722.164 6  97813083.31743  23886932.695
  23886938.301          40.500          21.800
 110437272.614 8  86054882.198 8  21015447.727    21015453.105
  21015453.406          49.800          49.100
 116534928.864 7  90806516.92245  22175838.656
  22175840.793          46.600          33.300
 16  2 13  1 14 30.0000000  0 10G30G07G08G11G16G27G01G28G09G23
 120682485.398 7  94038342.858 7  22965103.469    22965110.168
  22965109.645          43.900          42.700
 110379101.725 7  86009741.436 7  21004422.773    21004425.605
  21004425.219          47.700          46.300
 108559307.313 8  84591768.900 8  20658120.969    20658126.367
  20658126.199          48.800          49.600
 118785265.450 7  92559991.82945  22604069.742
  22604074.270          44.900          31.600
 131805489.291 5 102705664.49842  25081720.977
  25081724.707          34.800          16.900
 117780334.790 7  91777001.837 7  22412823.984    22412829.813
  22412829.035          45.600          44.300
 127968574.591 6  99715814.971 6  24351609.242    24351617.406
  24351617.238          37.600          39.300
 125476087.199 6  97773627.58243  23877297.641
  23877302.660          39.500          20.400
 110484935.213 8  86092021.869 8  21024517.273    21024523.277
  21024523.801          49.900          49.300
 116631351.738 7  90881651.60545  22194186.758
  22194189.875          46.400          32.400
 16  2 13  1 15  0.0000000  0 10G30G07G08G11G16G27G01G28G09G23
 120600400.191 7  93974380.439 7  22949482.711    22949489.637
  22949489.484          43.200          43.400
 110320709.565 7  85964241.067 7  20993310.953    20993313.957
  20993313.691          47.500          46.400
 108591992.781 8  84617238.094 8  20664340.531    20664346.258
  20664345.570          49.300          49.200
 118700228.157 7  92493729.05445  22587887.133
  22587891.969          43.400          30.200
 131885697.582 6 102768164.32242  25096984.383
  25096987.531          36.900          14.800
 117865605.376 7  91843446.470 7  22429052.023    22429056.684
  22429056.535          46.800          44.500
 127880891.171 6  99647490.311 6  24334923.930    24334931.816
  24334932.543          37.900          39.500
 125425614.146 6  97734298.02743  23867692.953
  23867696.188          40.300          19.300
 110533107.297 8  86129558.524 8  21033684.242    21033690.188
  21033690.531          49.800          49.400
 116728043.957 7  90956996.15645  22212586.852
  22212588.434          46.600          31.900
 16  2 13  1 15 30.0000000  0 10G30G07G08G11G16G27G01G28G09G23
 120518345.268 7  93910441.590 7  22933869.258    22933875.168
  22933874.730          44.300          42.600
 110262515.715 8  85918895.245 7  20982236.984    20982239.793
  20982240.117          48.500          46.600
 108625198.394 8  84643112.606 8  20670659.852    20670664.844
  20670664.469          48.500          49.400
 118615414.515 7  92427640.52945  22571748.320
  22571750.785          44.300          30.200
 131965805.599 6 102830586.20042  25112228.938
  25112231.105          38.300          16.300
 117951193.712 7  91910138.671 7  22445337.945    22445343.605
  22445344.039          46.400          44.900
 127793134.598 6  99579108.549 6  24318223.195    24318230.930
  24318231.266          36.600          37.100
 125375302.018 6  97695093.78643  23858119.750
  23858121.820          41.700          22.500
 110581786.866 8  86167490.641 8  21042948.016    21042953.555
  21042953.324          50.000          49.100
 116825002.177 7  91032548.02645  22231037.727
  22231039.590          47.500          33.000
 16  2 13  1 16  0.0000000  0 10G30G07G08G11G16G27G01G28G09G23
 120436322.490 7  93846527.749 7  22918259.813    22918266.188
  22918265.832          44.000          42.700
 110204522.708 7  85873705.911 7  20971201.500    20971204.027
  20971204.355          46.900          46.800
 108658922.691 7  84669391.292 8  20677077.078    20677082.309
  20677082.063          47.700          49.000
 118530827.620 7  92361728.68345  22555652.055
  22555654.203          45.000          30.100
 132045812.614 6 102892929.33042  25127453.141
  25127455.824          37.300          14.800
 118037097.362 7  91977076.542 7  22461684.945    22461689.953
  22461690.027          45.800          43.800
