     2.11           OBSERVATION DATA    G (GPS)             RINEX VERSION / TYPE
teqc  2013Mar15     Grigory Steblov     20160214 00:07:08UTCPGM / RUN BY / DATE
Linux 2.4.21-27.ELsmp|Opteron|gcc -static|Linux x86_64|=+   COMMENT
BIT 2 OF LLI FLAGS DATA COLLECTED UNDER A/S CONDITION       COMMENT
IRKM                                                        MARKER NAME
12313M001                                                   MARKER NUMBER
Dmitry Frolov       RDAAC                                   OBSERVER / AGENCY
LP01756             ASHTECH Z-XII3      CD00                REC # / TYPE / VERS
178                 AOAD/M_T        NONE                    ANT # / TYPE
  -968332.3892  3794425.4085  5018167.7056                  APPROX POSITION XYZ
        0.1280        0.0000        0.0000                  ANTENNA: DELTA H/E/N
     1     1                                                WAVELENGTH FACT L1/2
     7    L1    L2    P1    P2    C1    S1    S2            # / TYPES OF OBSERV
                                                            COMMENT
This data is provided as a public service by                COMMENT
Regional GPS Data Acquisition Analysis Center (RDAAC)       COMMENT
Geophysical Service RAS (GS RAS)                            COMMENT
The data aquisition software is provided by NASA/JPL        COMMENT
No warranty is expressed or implied regarding suitability   COMMENT
for use. For further information, contact:                  COMMENT
Grigory M. Steblov, GS RAS (steblov@gps.gsras.ru)           COMMENT
Dave Stowers, NASA/JPL m/s 238-600                          COMMENT
4800 Oak Grove Drive, Pasadena CA 91109 USA                 COMMENT
                                                            COMMENT
 SNR is mapped to RINEX snr flag value [0-9]                COMMENT
  L1 & L2: min(max(int(snr_dBHz/6), 0), 9)                  COMMENT
pseudorange smoothing corrections not applied               COMMENT
  2016     2    13     0     0   30.0000000     GPS         TIME OF FIRST OBS
                                                            END OF HEADER
 16  2 13  0  1  0.0000000  0  8G05G21G02G07G29G13G20G15
 -15914539.04547 -12377439.82147  20797348.5554   20797351.9624   20797348.313
        47.9004         45.4004
  -1121378.32746   -862671.46045  24156262.0924   24156265.5554   24156262.023
        37.6004         35.7004
  -4878014.18346  -3776631.45346  22747255.1504   22747257.2404   22747255.845
        41.1004         38.6004
  -1363046.14245  -1049637.70745  24266033.1194   24266036.2004   24266030.964
        35.6004         34.0004
 -19097914.84747 -14866636.27247  21089760.5424   21089763.9294   21089760.271
        46.5004         43.9004
  -9875073.96547  -7671362.79647  21495194.7094   21495198.2624   21495194.492
        44.9004         42.3004
 -14496701.16947 -11274124.92147  20619182.3704   20619186.7994   20619183.323
        46.9004         44.4004
  -4147830.75146  -3214946.47046  23181859.7504   23181863.2934   23181859.960
        39.9004         37.4004
 16  2 13  0  1 30.0000000  0  8G05G21G02G07G29G13G20G15
 -15864286.55347 -12338282.05947  20806911.1544   20806914.5034   20806910.443
        47.9004         45.2004
  -1208191.66446   -930318.21545  24139741.0954   24139744.1044   24139741.547
        37.8004         35.9004
  -4789424.92746  -3707600.93846  22764113.3664   22764115.8684   22764113.118
        41.1004         38.6004
  -1368625.26645  -1053985.13445  24264969.8954   24264971.1304   24264969.827
        35.4004         33.8004
 -19061696.07647 -14838413.88047  21096652.4754   21096656.2414   21096651.941
        46.5004         43.9004
  -9943382.17247  -7724589.97247  21482195.7964   21482200.1574   21482195.885
        45.1004         42.5004
 -14547615.91547 -11313798.74547  20609493.8094   20609497.4134   20609494.160
        46.9004         44.4004
  -4258672.28146  -3301316.47846  23160766.9974   23160771.1754   23160767.305
        39.9004         37.6004
 16  2 13  0  2  0.0000000  0  8G05G21G02G07G29G13G20G15
 -15813671.40547 -12298841.70247  20816543.2404   20816546.7684   20816542.591
        47.9004         45.2004
  -1294921.07246   -997899.55346  24123238.6434   24123241.4524   24123238.677
        38.0004         36.0004
  -4700584.73546  -3638374.88246  22781018.2394   22781021.2574   22781018.641
        41.1004         38.6004
  -1373652.08645  -1057902.18245  24264015.7324   24264017.9464   24264013.347
        35.2004         33.6004
 -19024886.96247 -14809731.48047  21103656.9594   21103660.9944   21103656.670
        46.5004         43.7004
 -10011185.90547  -7777424.05647  21469293.1814   21469297.2124   21469292.954
        45.1004         42.5004
 -14598143.34247 -11353170.75747  20599878.7354   20599882.7764   20599879.427
        46.9004         44.4004
  -4369291.35746  -3387513.15946  23139716.9174   23139721.2054   23139716.387
        40.1004         37.8004
 16  2 13  0  2 30.0000000  0  8G05G21G02G07G29G13G20G15
 -15762695.40447 -12259120.16147  20826243.8274   20826247.0574   20826243.343
        47.9004         45.2004
  -1381565.31046  -1065414.53245  24106750.8074   24106752.3564   24106750.737
        38.2004         35.9004
  -4611494.86246  -3568954.28746  22797972.2624   22797974.6094   22797973.512
        40.9004         38.6004
  -1378125.96145  -1061388.35245  24263163.1734   24263166.0144   24263162.766
        35.2004         33.8004
 -18987489.29347 -14780590.46347  21110773.5944   21110777.1444   21110773.579
        46.3004         43.7004
 -10078483.31847  -7829863.60547  21456486.7984   21456491.2864   21456486.331
        45.1004         42.5004
 -14648282.89547 -11392240.52747  20590337.7794   20590341.8114   20590337.784
        47.0004         44.4004
  -4479685.35446  -3473534.45246  23118709.1744   23118713.8004   23118708.802
        40.3004         37.9004
 16  2 13  0  3  0.0000000  0  8G05G21G02G07G29G13G20G15
 -15711360.06847 -12219118.62147  20836012.5404   20836015.7934   20836011.915
        47.9004         45.2004
  -1468122.91946  -1132862.00945  24090278.8034   24090281.9854   24090279.472
        38.0004         35.9004
  -4522156.54246  -3499340.09146  22814972.3844   22814975.0294   22814972.698
        40.9004         38.5004
  -1382046.45945  -1064443.34345  24262417.4934   24262422.6924   24262416.422
        35.6004         34.3004
 -18949504.07447 -14750991.62347  21118001.8924   21118005.8234   21118001.559
        46.5004         43.9004
 -10145272.23247  -7881906.92847  21443777.1744   21443781.3064   21443777.176
        45.1004         42.3004
 -14698033.84947 -11431007.49147  20580870.4914   20580874.3814   20580871.151
        47.0004         44.4004
  -4589851.57446  -3559378.26446  23097746.1374   23097749.8004   23097744.098
        40.4004         37.9004
 16  2 13  0  3 30.0000000  0  8G05G21G02G07G29G13G20G15
 -15659666.37347 -12178837.84447  20845849.4734   20845852.7024   20845848.727
        47.9004         45.2004
  -1554592.40546  -1200240.81145  24073824.2054   24073827.2774   24073824.865
        38.0004         35.9004
  -4432570.43346  -3429532.80046  22832019.6384   22832023.3504   22832020.957
        40.8004         38.3004
  -1385412.89045  -1067066.60945  24261775.5834   24261780.1144   24261775.731
        35.6004         34.1004
 -18910932.43347 -14720935.83247  21125342.1654   21125346.1414   21125341.796
        46.5004         43.7004
 -10211550.22647  -7933552.12447  21431165.3794   21431169.2634   21431165.081
        45.3004         42.6004
 -14747395.16947 -11469470.85847  20571477.2444   20571481.1714   20571477.617
        47.0004         44.4004
  -4699787.49946  -3645042.62046  23076825.4124   23076829.3974   23076824.683
        40.3004         37.9004
 16  2 13  0  4  0.0000000  0  8G05G21G02G07G29G13G20G15
 -15607615.82947 -12138279.00647  20855754.0374   20855757.6284   20855753.933
        47.7004         45.2004
  -1640972.67146  -1267550.10845  24057385.9184   24057389.5454   24057386.884
        37.8004         35.9004
  -4342737.98146  -3359533.56646  22849114.4944   22849117.7334   22849115.632
        40.8004         38.3004
  -1388225.10245  -1069257.99245  24261242.1484   24261243.5424   24261241.880
        35.7004         34.0004
 -18871776.19047 -14690424.50447  21132793.4744   21132797.2244   21132793.121
        46.3004         43.7004
 -10277315.48547  -7984797.79047  21418650.7114   21418654.6604   21418650.282
        45.3004         42.6004
 -14796366.49147 -11507630.32947  20562158.3974   20562162.2504   20562158.725
        47.0004         44.5004
  -4809490.72846  -3730525.64046  23055949.4804   23055953.3874   23055949.391
        40.4004         38.3004
 16  2 13  0  4 30.0000000  0  8G05G21G02G07G29G13G20G15
 -15555210.03247 -12097443.33847  20865727.2034   20865730.0624   20865726.511
        47.9004         45.2004
  -1727262.74046  -1334789.12945  24040965.0484   24040969.3074   24040966.379
        37.8004         35.9004
  -4252660.45946  -3289343.37046  22866256.1934   22866258.6674   22866256.839
        40.8004         38.3004
  -1390482.38346  -1071016.98645  24260813.4664   24260815.7154   24260812.028
        36.1004         34.5004
 -18832036.06547 -14659458.19447  21140355.3644   21140359.1584   21140354.991
        46.3004         43.7004
 -10342566.12247  -8035642.45747  21406233.8514   21406237.3794   21406233.238
        45.3004         42.6004
 -14844946.94647 -11545485.22747  20552913.5424   20552917.9324   20552914.135
        47.2004         44.5004
  -4918958.52146  -3815825.22446  23035118.5774   23035123.1564   23035118.706
        40.8004         38.3004
 16  2 13  0  5  0.0000000  0  8G05G21G02G07G29G13G20G15
 -15502450.24747 -12056331.84147  20875766.4294   20875770.2114   20875766.104
        47.7004         45.1004
  -1813460.59346  -1401956.28146  24024563.0984   24024565.6224   24024563.208
        38.0004         36.0004
  -4162339.03846  -3218963.11846  22883444.1574   22883446.4434   22883443.912
        40.6004         37.9004
  -1392184.85146  -1072343.62245  24260488.0674   24260490.4254   24260487.470
        36.1004         34.5004
 -18791713.53847 -14628038.07647  21148028.5544   21148032.0714   21148027.943
        46.3004         43.7004
 -10407299.93247  -8086084.39347  21393915.1024   21393919.0874   21393915.247
        45.3004         42.6004
 -14893135.94747 -11583035.10147  20543743.6804   20543747.7404   20543744.051
        47.0004         44.5004
  -5028188.32146  -3900939.35546  23014332.3934   23014337.4574   23014331.932
        40.8004         38.5004
 16  2 13  0  5 30.0000000  0  8G05G21G02G07G29G13G20G15
 -15449338.12047 -12014945.79847  20885873.8584   20885877.3004   20885873.536
        47.7004         45.2004
  -1899565.43546  -1469050.95046  24008178.4674   24008181.7284   24008178.005
        38.3004         36.2004
  -4071774.93346  -3148393.76946  22900677.4674   22900680.7714   22900678.116
        40.4004         37.8004
  -1393332.26745  -1073237.79845  24260271.4724   24260272.1924   24260269.025
        35.9004         34.3004
 -18750810.41447 -14596165.54247  21155811.9654   21155816.0094   21155812.042
        46.3004         43.7004
 -10471514.94747  -8136122.08047  21381695.7304   21381699.6884   21381695.658
        45.5004         42.6004
 -14940933.02847 -11620279.56747  20534648.1404   20534652.2704   20534648.586
        47.0004         44.4004
  -5137177.94046  -3985866.32146  22993592.7604   22993597.1414   22993591.380
        40.8004         38.3004
 16  2 13  0  6  0.0000000  0  8G05G21G02G07G29G13G20G15
 -15395874.74747 -11973286.05047  20896047.4934   20896051.0884   20896046.967
        47.7004         45.1004
  -1985575.44346  -1536071.74346  23991811.4434   23991813.9534   23991811.597
        38.7004         36.6004
  -3980968.96046  -3077635.94446  22917956.8154   22917960.3004   22917957.885
        40.1004         37.6004
  -1393923.67646  -1073698.68845  24260155.6154   24260158.5394   24260156.401
        36.1004         34.5004
 -18709327.48247 -14563841.21847  21163706.2884   21163710.3154   21163706.135
        46.3004         43.7004
 -10535209.06847  -8185753.87347  21369574.7854   21369578.6924   21369574.375
        45.5004         42.6004
 -14988337.33947 -11657217.99147  20525627.1324   20525631.3314   20525628.157
        47.0004         44.5004
  -5245924.59946  -4070603.97546  22972898.6484   22972903.2694   22972897.625
        40.9004         38.5004
 16  2 13  0  6 30.0000000  0  8G05G21G02G07G29G13G20G15
 -15342061.64247 -11931353.78547  20906287.8204   20906290.8894   20906287.203
        47.7004         45.1004
  -2071489.24046  -1603017.55646  23975462.4244   23975464.9134   23975462.751
        38.9004         36.7004
  -3889922.90546  -3006691.04446  22935282.0524   22935285.3754   22935283.273
        40.1004         37.6004
  -1393958.92646  -1073726.16945  24260150.9274   24260150.9384   24260150.491
        36.6004         34.6004
 -18667265.97647 -14531066.04647  21171710.2254   21171713.8844   21171709.838
        46.2004         43.7004
 -10598380.24047  -8234978.16847  21357554.1364   21357557.8594   21357554.121
        45.5004         42.8004
 -15035347.82347 -11693849.52847  20516681.3604   20516685.4754   20516681.628
        47.0004         44.5004
  -5354425.46546  -4155150.09946  22952251.7104   22952256.6184   22952252.124
        40.9004         38.6004
 16  2 13  0  7  0.0000000  0  8G05G21G02G07G29G13G20G15
 -15287900.21847 -11889150.10047  20916594.4114   20916597.7494   20916593.926
        47.7004         45.1004
  -2157305.86846  -1669887.64646  23959131.6204   23959135.2104   23959132.017
        39.0004         36.7004
  -3798637.64346  -2935559.75046  22952654.1614   22952656.8604   22952654.589
        40.1004         37.8004
  -1393437.71246  -1073320.08345  24260250.3994   24260253.2284   24260248.138
        36.3004         34.6004
 -18624627.62147 -14497841.38047  21179823.9174   21179827.8594   21179823.647
        46.3004         43.5004
 -10661026.55447  -8283793.48247  21345632.5944   21345636.4024   21345632.514
        45.5004         42.8004
 -15081964.26047 -11730174.03247  20507811.0674   20507814.6764   20507811.756
        47.2004         44.5004
  -5462678.31146  -4239502.97746  22931652.3614   22931656.3654   22931651.913
        41.1004         38.6004
 16  2 13  0  7 30.0000000  0  8G05G21G02G07G29G13G20G15
 -15233392.14447 -11846676.30647  20926966.8534   20926970.1364   20926966.481
        47.5004         44.9004
  -2243024.21746  -1736681.16146  23942819.8434   23942823.3274   23942820.033
        38.9004         36.6004
  -3707114.42546  -2864243.03646  22970070.5484   22970072.9404   22970071.504
        40.1004         37.8004
  -1392360.11646  -1072480.47645  24260455.5344   24260458.3054   24260455.477
        36.4004         34.6004
 -18581413.85247 -14464168.35147  21188047.4884   21188051.2114   21188047.366
        46.3004         43.7004
 -10723146.39047  -8332198.56047  21333811.9094   21333815.3014   21333811.225
        45.5004         43.0004
 -15128186.09747 -11766191.04747  20499015.0444   20499019.3364   20499015.339
        47.2004         44.5004
  -5570680.71946  -4323660.71846  22911100.1484   22911104.1334   22911099.473
        40.9004         38.5004
 16  2 13  0  8  0.0000000  0  8G05G21G02G07G29G13G20G15
 -15178538.34647 -11803933.10447  20937405.0954   20937408.2424   20937404.784
        47.5004         44.9004
  -2328642.85246  -1803396.98246  23926527.0274   23926530.3974   23926527.413
        38.9004         36.6004
  -3615354.14046  -2792741.60946  22987531.6794   22987534.6144   22987531.969
        40.1004         37.8004
  -1390725.32446  -1071206.62945  24260766.9404   24260768.7704   24260764.690
        36.1004         34.3004
 -18537626.18947 -14430048.12547  21196380.1114   21196384.0284   21196379.594
        46.5004         43.9004
 -10784737.55547  -8380191.68347  21322091.1084   21322095.5384   21322091.310
        45.6004         43.0004
 -15174012.08247 -11801899.61847  20490294.7954   20490298.5414   20490295.062
        47.2004         44.7004
  -5678429.98746  -4407621.19246  22890596.0854   22890599.8904   22890595.931
        40.9004         38.6004
 16  2 13  0  8 30.0000000  0  8G05G21G02G07G29G13G20G15
 -15123340.69147 -11760921.97647  20947909.1644   20947912.3224   20947908.171
        47.5004         44.9004
  -2414159.98546  -1870033.72146  23910254.0694   23910257.0614   23910254.134
        38.7004         36.4004
  -3523358.30546  -2721056.63146  23005037.5424   23005041.1684   23005037.838
        40.1004         37.6004
  -1388533.59945  -1069498.85845  24261184.0684   24261186.0514   24261181.642
        35.7004         34.1004
 -18493265.89247 -14395481.68247  21204821.5814   21204825.4024   21204821.467
        46.3004         43.7004
 -10845797.98747  -8427771.24647  21310471.5684   21310475.8094   21310471.949
        45.6004         43.0004
 -15219442.24547 -11837299.75047  20481649.8614   20481653.4744   20481649.946
        47.2004         44.5004
  -5785923.68546  -4491382.51846  22870140.4584   22870145.0554   22870140.138
        41.1004         38.8004
 16  2 13  0  9  0.0000000  0  8G05G21G02G07G29G13G20G15
 -15067800.56047 -11717643.97647  20958477.9154   20958481.3434   20958477.507
        47.4004         44.9004
  -2499574.61546  -1936590.57746  23894000.6814   23894003.6854   23894000.808
        38.7004         36.6004
  -3431127.82146  -2649188.80746  23022589.4194   23022592.4024   23022588.785
        39.7004         37.4004
  -1385784.57745  -1067356.77245  24261704.2474   24261710.8404   24261705.223
        35.6004         33.8004
 -18448334.37347 -14360470.14747  21213371.7114   21213375.3504   21213371.261
        46.3004         43.7004
 -10906326.02147  -8474935.95547  21298953.9184   21298957.5464   21298953.536
        45.6004         43.0004
 -15264475.48547 -11872390.59847  20473080.2874   20473084.4014   20473080.540
        47.2004         44.7004
  -5893159.48346  -4574942.88646  22849734.8424   22849738.9244   22849734.252
        41.3004         38.8004
 16  2 13  0  9 30.0000000  0  8G05G21G02G07G29G13G20G15
 -15011919.08047 -11674099.99847  20969112.0444   20969115.4704   20969111.664
        47.5004         44.9004
  -2584885.20946  -2003066.37646  23877765.7894   23877769.2984   23877766.671
        38.9004         36.7004
  -3338664.72746  -2577139.74446  23040184.4594   23040187.3424   23040184.589
        39.7004         37.6004
  -1382478.29045  -1064780.46445  24262335.8444   24262341.4424   24262335.234
        35.6004         34.0004
 -18402833.94047 -14325015.30547  21222030.2734   21222034.0244   21222030.000
        46.3004         43.7004
 -10966319.76147  -8521684.33247  21287537.3674   21287541.1534   21287537.136
        45.6004         43.0004
 -15309111.73247 -11907172.10347  20464586.0804   20464590.2964   20464586.820
        47.2004         44.7004
  -6000134.79646  -4658300.28446  22829377.6384   22829381.9134   22829377.103
        41.3004         39.0004
 16  2 13  0 10  0.0000000  0  8G05G21G02G07G29G13G20G15
 -14955697.90647 -11630291.31747  20979810.4184   20979814.0664   20979810.069
        47.4004         44.9004
  -2670090.40446  -2069460.02946  23861551.7664   23861554.9584   23861552.318
        39.0004         36.7004
  -3245969.72746  -2504909.96446  23057822.8304   23057826.5794   23057824.055
        39.9004         37.6004
  -1378614.50745  -1061769.72445  24263070.3464   24263073.0664   24263069.475
        35.6004         34.0004
 -18356765.02347 -14289117.47947  21230797.1224   21230800.7414   21230796.665
        46.2004         43.5004
 -11025777.40047  -8568014.96847  21276222.8944   21276226.6024   21276222.672
        45.6004         43.0004
 -15353349.83547 -11941643.35847  20456167.8744   20456172.0884   20456168.507
        47.2004         44.7004
  -6106846.85146  -4741452.54546  22809070.9924   22809075.7764   22809070.382
        41.5004         39.0004
 16  2 13  0 10 30.0000000  0  8G05G21G02G07G29G13G20G15
 -14899138.44247 -11586219.03547  20990573.2954   20990576.7944   20990572.883
        47.4004         44.9004
  -2755188.53646  -2135770.25746  23845359.4564   23845360.7434   23845359.084
        38.9004         36.7004
  -3153044.05546  -2432500.44546  23075507.2704   23075509.7084   23075507.233
        39.9004         37.6004
  -1374192.96845  -1058324.40845  24263909.7804   24263917.2544   24263910.049
        35.2004         33.8004
 -18310129.66847 -14252778.27647  21239671.2334   21239675.0724   21239670.700
        46.2004         43.5004
 -11084696.78547  -8613926.18447  21265011.1234   21265014.9284   21265010.692
        45.8004         43.2004
 -15397189.38447 -11975804.05747  20447825.9434   20447829.4024   20447826.513
        47.2004         44.7004
  -6213293.27046  -4824397.81246  22788814.6684   22788819.2094   22788814.506
        41.5004         39.0004
 16  2 13  0 11  0.0000000  0  8G05G21G02G07G29G13G20G15
 -14842242.03647 -11541884.20747  21001400.2994   21001403.3304   21001400.000
        47.4004         44.7004
  -2840178.62146  -2201996.30046  23829185.3064   23829188.4054   23829185.891
        38.9004         36.6004
  -3059889.01746  -2359912.19046  23093234.0344   23093237.2374   23093233.878
        39.7004         37.4004
  -1369213.66745  -1054444.46245  24264860.4784   24264861.7214   24264861.198
        35.6004         34.1004
 -18262929.42647 -14215998.90747  21248653.5724   21248657.2134   21248653.361
        46.2004         43.7004
 -11143076.44047  -8659416.83247  21253901.3654   21253905.6254   21253901.293
        45.8004         43.2004
 -15440629.77947 -12009653.71647  20439558.9384   20439563.0674   20439559.056
        47.2004         44.7004
  -6319471.62346  -4907134.20146  22768609.6644   22768614.1884   22768609.426
        41.6004         39.2004
 16  2 13  0 11 30.0000000  0  8G05G21G02G07G29G13G20G15
 -14785010.06447 -11497287.88847  21012291.1104   21012294.6994   21012290.783
        47.4004         44.7004
  -2925058.78546  -2268136.69546  23813033.1374   23813036.0334   23813032.795
        38.9004         36.6004
  -2966505.65646  -2287146.02746  23111004.7924   23111007.2754   23111005.487
        39.7004         37.4004
  -1363676.26645  -1050129.55945  24265910.2174   24265916.0294   24265912.572
        35.4004         34.0004
 -18215165.92947 -14178780.62347  21257742.1184   21257746.4144   21257742.114
        46.2004         43.5004
 -11200914.22447  -8704485.23647  21242895.0784   21242899.7634   21242894.920
        45.8004         43.2004
 -15483670.04247 -12043191.59247  20431368.7044   20431373.0354   20431369.324
        47.4004         44.7004
  -6425379.24646  -4989659.62646  22748456.0504   22748461.0824   22748455.090
        41.6004         39.2004
 16  2 13  0 12  0.0000000  0  8G05G21G02G07G29G13G20G15
 -14727444.11247 -11452431.32947  21023245.7844   21023249.0744   21023245.163
        47.4004         44.7004
  -3009827.98146  -2334190.62546  23796900.8664   23796905.4034   23796902.407
        38.9004         36.7004
  -2872895.45946  -2214203.11846  23128817.9764   23128820.9104   23128818.508
        39.6004         37.1004
  -1357581.07945  -1045380.11445  24267072.3364   24267077.6644   24267071.668
        35.4004         34.0004
 -18166840.63647 -14141124.58547  21266938.2544   21266942.3054   21266938.329
        46.2004         43.5004
 -11258208.76547  -8749130.34747  21231992.8294   21231996.3634   21231992.745
        45.8004         43.2004
 -15526310.03447 -12076417.56647  20423254.7104   20423258.4814   20423255.147
        47.4004         44.9004
  -6531013.68646  -5071972.18946  22728354.7894   22728359.4104   22728354.354
        41.8004         39.3004
 16  2 13  0 12 30.0000000  0  8G05G21G02G07G29G13G20G15
 -14669545.60647 -11407315.64447  21034263.5664   21034267.1554   21034263.128
        47.4004         44.7004
  -3094484.72446  -2400156.92346  23780792.1904   23780795.2224   23780792.543
        38.9004         36.6004
  -2779059.77846  -2141084.50146  23146673.5034   23146676.6124   23146674.915
        39.2004         36.9004
  -1350928.03545  -1040195.94045  24268337.7774   24268341.6464   24268339.043
        35.6004         34.1004
 -18117955.39047 -14103032.22247  21276241.1794   21276245.1654   21276240.416
        46.2004         43.3004
 -11314957.80747  -8793350.38947  21221194.1314   21221197.2634   21221193.325
        45.8004         43.3004
 -15568549.04447 -12109331.08747  20415217.0114   20415220.8534   20415217.615
        47.4004         44.7004
  -6636372.76347  -5154070.19346  22708305.7924   22708310.1614   22708305.362
        42.0004         39.5004
 16  2 13  0 13  0.0000000  0  8G05G21G02G07G29G13G20G15
 -14611315.75647 -11361941.76447  21045344.5024   21045347.7884   21045344.114
        47.4004         44.7004
  -3179027.70246  -2466034.57246  23764703.8924   23764707.8074   23764704.862
        39.0004         36.7004
  -2684999.53146  -2067790.89346  23164572.7494   23164576.2014   23164573.509
        39.2004         36.9004
  -1343716.98845  -1034576.97045  24269712.7374   24269714.1204   24269711.617
        35.9004         34.1004
 -18068511.70447 -14064504.71147  21285649.9514   21285653.7854   21285649.771
        46.0004         43.3004
 -11371159.79447  -8837144.14847  21210499.0164   21210503.0194   21210498.767
        45.8004         43.2004
 -15610386.23547 -12141931.50547  20407255.3724   20407259.5774   20407255.668
        47.4004         44.7004
  -6741453.79847  -5235951.52646  22688309.3664   22688313.6864   22688309.333
        42.0004         39.3004
 16  2 13  0 13 30.0000000  0  8G05G21G02G07G29G13G20G15
 -14552756.18147 -11316310.95547  21056488.1104   21056491.1694   21056487.695
        47.4004         44.5004
  -3263455.50046  -2531822.47446  23748638.2104   23748642.0814   23748638.259
        39.2004         37.1004
  -2590716.21146  -1994323.46346  23182515.2814   23182517.4244   23182515.314
        39.0004         36.7004
  -1335948.14146  -1028523.32045  24271188.8214   24271193.2274   24271188.679
        36.1004         34.5004
 -18018511.32547 -14025543.41847  21295164.5644   21295168.1734   21295164.179
        46.0004         43.3004
 -11426813.19547  -8880510.43947  21199908.2594   21199912.5134   21199907.956
        45.8004         43.3004
 -15651821.45947 -12174218.71347  20399370.9634   20399374.9144   20399371.554
        47.4004         44.7004
  -6846254.24247  -5317614.23646  22668366.5124   22668370.8624   22668366.181
        42.0004         39.5004
 16  2 13  0 14  0.0000000  0  8G05G21G02G07G29G13G20G15
 -14493868.26847 -11270424.29947  21067694.0194   21067697.5234   21067693.771
        47.4004         44.7004
  -3347766.91546  -2597519.69646  23732594.7304   23732597.5374   23732595.318
        39.6004         37.3004
  -2496211.09146  -1920683.21346  23200498.3974   23200501.7074   23200499.157
        38.7004         36.6004
  -1327621.29646  -1022034.94345  24272775.2604   24272777.4244   24272775.377
        36.4004         34.6004
 -17967956.11047 -13986149.77847  21304784.6134   21304788.9424   21304784.069
        46.0004         43.2004
 -11481916.12247  -8923447.79247  21189422.8564   21189426.6744   21189422.646
        46.0004         43.3004
 -15692853.99047 -12206192.11847  20391562.5644   20391566.2524   20391562.999
        47.4004         44.9004
  -6950771.52147  -5399056.28746  22648477.6964   22648482.0764   22648476.819
        42.2004         39.7004
 16  2 13  0 14 30.0000000  0  8G05G21G02G07G29G13G20G15
 -14434653.39447 -11224282.87447  21078962.1544   21078965.4594   21078961.913
        47.2004         44.5004
  -3431959.91846  -2663124.64146  23716574.0424   23716576.3924   23716573.646
        39.6004         37.3004
  -2401485.19646  -1846870.92546  23218523.9604   23218527.2484   23218523.580
        38.7004         36.6004
  -1318736.56346  -1015111.80845  24274463.8224   24274468.5284   24274464.260
        36.4004         34.6004
 -17916847.24847 -13946324.73347  21314510.2604   21314514.3734   21314510.092
        45.8004         43.2004
 -11536466.85847  -8965954.86747  21179042.0324   21179045.5914   21179041.510
        46.0004         43.3004
 -15733483.04447 -12237851.13847  20383830.8874   20383834.8254   20383831.583
        47.4004         44.7004
  -7055003.38147  -5480275.93046  22628642.7504   22628647.5334   22628642.434
        42.3004         39.7004
 16  2 13  0 15  0.0000000  0  8G05G21G02G07G29G13G20G15
 -14375112.88947 -11177887.71047  21090292.1654   21090296.2734   21090291.955
        47.2004         44.4004
  -3516033.35546  -2728636.43246  23700574.3574   23700577.4724   23700575.058
        39.6004         37.3004
  -2306540.40246  -1772888.06946  23236591.7834   23236595.3084   23236591.628
        38.5004         36.4004
  -1309294.23446  -1007754.19545  24276262.4084   24276266.0144   24276262.873
        36.6004         34.8004
 -17865186.94747 -13906069.98647  21324340.9484   21324345.2334   21324341.033
        45.8004         43.2004
 -11590463.98847  -9008030.56347  21168766.7294   21168770.7464   21168766.448
        46.0004         43.2004
 -15773708.37147 -12269195.55847  20376176.4654   20376180.4884   20376176.979
        47.4004         44.7004
  -7158946.99947  -5561270.97246  22608863.2934   22608867.8234   22608862.738
        42.3004         39.9004
 16  2 13  0 15 30.0000000  0  8G05G21G02G07G29G13G20G15
 -14315248.37547 -11131240.07347  21101684.4054   21101687.9094   21101683.764
        47.2004         44.7004
  -3599985.83746  -2794053.96246  23684598.9354   23684601.9044   23684599.355
        39.6004         37.1004
  -2211377.59046  -1698735.34546  23254700.7744   23254704.9544   23254700.699
        38.7004         36.6004
  -1299294.45046   -999962.20545  24278165.0484   24278168.9224   24278164.626
        36.4004         34.6004
 -17812976.74947 -13865386.75047  21334277.2164   21334280.5194   21334276.923
        46.0004         43.3004
 -11643905.84347  -9049673.57747  21158597.2994   21158600.6664   21158597.051
        46.0004         43.5004
 -15813529.30147 -12300224.86847  20368598.9474   20368602.6564   20368599.390
        47.4004         44.9004
  -7262600.33447  -5642039.81546  22589138.5694   22589142.9954   22589139.128
        42.7004         40.2004
 16  2 13  0 16  0.0000000  0  8G05G21G02G07G29G13G20G15
 -14255061.33347 -11084341.11647  21113137.2684   21113141.3844   21113136.869
        47.2004         44.5004
  -3683815.63646  -2859375.90446  23668645.9714   23668649.5794   23668646.834
        39.4004         37.1004
  -2115997.88046  -1624413.62146  23272850.8684   23272854.1924   23272851.233
        38.9004         36.7004
  -1288736.65046   -991735.41645  24280173.3234   24280177.1994   24280172.952
        36.8004         35.0004
 -17760218.33647 -13824276.33647  21344316.0824   21344319.8624   21344315.664
        46.0004         43.3004
 -11696790.31747  -9090882.26947  21148533.2404   21148537.3414   21148533.158
        46.2004         43.5004
 -15852944.84247 -12330938.28447  20361098.3264   20361102.4304   20361098.669
        47.4004         44.9004
  -7365960.67847  -5722580.35346  22569469.4304   22569474.0114   22569468.492
        42.5004         39.9004
 16  2 13  0 16 30.0000000  0  8G05G21G02G07G29G13G20G15
 -14194553.01847 -11037191.81247  21124651.8544   21124655.0224   21124651.450
        47.2004         44.5004
  -3767521.63846  -2924601.36946  23652717.5934   23652720.1944   23652718.291
        39.4004         37.1004
  -2020403.01646  -1549924.24046  23291042.3064   23291045.4374   23291042.387
        38.9004         36.7004
  -1277621.44646   -983074.26645  24282289.1104   24282293.3434   24282289.826
        36.8004         35.0004
 -17706914.07347 -13782740.58547  21354459.8674   21354463.4584   21354459.168
        46.0004         43.2004
 -11749116.11447  -9131655.62647  21138576.3474   21138580.2634   21138576.015
        46.2004         43.5004
 -15891954.78247 -12361335.65447  20353674.9444   20353678.9774   20353675.446
        47.4004         44.9004
  -7469025.69047  -5802890.76546  22549857.0444   22549861.2144   22549856.734
        42.7004         39.9004
 16  2 13  0 17  0.0000000  0  8G05G21G02G07G29G13G20G15
 -14133724.82347 -10989793.25147  21136226.9454   21136230.5314   21136226.330
        47.2004         44.5004
  -3851102.43946  -2989729.28046  23636813.2134   23636815.9564   23636812.979
        39.4004         37.1004
  -1924593.95846  -1475267.95546  23309273.9484   23309277.6454   23309274.366
        39.0004         36.7004
  -1265949.40046   -973979.20145  24284510.6934   24284515.4274   24284510.129
        37.1004         35.2004
 -17653065.15947 -13740780.42947  21364707.3814   21364710.9764   21364706.643
        46.0004         43.2004
 -11800881.60547  -9171992.38847  21128725.6714   21128729.3184   21128725.121
        46.2004         43.5004
 -15930558.85747 -12391416.76747  20346328.5604   20346332.5864   20346328.846
        47.4004         44.9004
  -7571792.81147  -5882969.04546  22530301.2424   22530305.3604   22530300.947
        42.5004         40.0004
 16  2 13  0 17 30.0000000  0  8G05G21G02G07G29G13G20G15
 -14072578.29847 -10942146.63947  21147862.5194   21147866.2794   21147862.106
        47.0004         44.4004
  -3934556.39446  -3054758.35646  23620932.5174   23620935.5194   23620932.570
        39.6004         37.3004
  -1828571.99146  -1400445.75746  23327546.6124   23327550.1984   23327547.378
        38.9004         36.7004
  -1253720.49046   -964450.27945  24286837.5604   24286841.2524   24286835.983
        37.1004         35.2004
 -17598674.00447 -13698397.74747  21375057.0534   21375061.2834   21375056.840
        46.0004         43.2004
 -11852085.05947  -9211891.19547  21118982.0304   21118985.6684   21118981.815
        46.2004         43.5004
 -15968756.23947 -12421180.97547  20339060.2034   20339063.8544   20339060.842
        47.4004         44.9004
  -7674259.81447  -5962813.47846  22510802.2924   22510807.0214   22510802.206
        42.7004         40.2004
 16  2 13  0 18  0.0000000  0  8G05G21G02G07G29G13G20G15
 -14011114.72447 -10894252.98547  21159559.1134   21159562.6524   21159558.779
        47.0004         44.4004
  -4017881.74546  -3119687.21546  23605076.1384   23605078.3724   23605076.041
        39.7004         37.4004
  -1732338.82046  -1325458.98946  23345859.8414   23345862.3224   23345859.636
        38.9004         36.6004
  -1240934.68746   -954487.36545  24289269.8164   24289273.3844   24289270.052
        37.0004         35.3004
 -17543741.85447 -13655593.50947  21385510.5864   21385514.6064   21385510.105
        45.8004         43.2004
 -11902725.07047  -9251350.96247  21109345.6184   21109348.9964   21109345.019
        46.2004         43.5004
 -16006546.60547 -12450628.03047  20331868.9904   20331872.8384   20331869.232
        47.4004         44.9004
  -7776424.09247  -6042422.03246  22491360.8114   22491365.7084   22491360.931
        42.7004         40.0004
 16  2 13  0 18 30.0000000  0  8G05G21G02G07G29G13G20G15
 -13949335.51547 -10846113.38647  21171315.3894   21171318.9394   21171314.987
        47.2004         44.5004
  -4101077.85846  -3184515.36046  23589243.5424   23589247.1444   23589244.721
        39.7004         37.4004
  -1635895.55846  -1250308.52046  23364211.4694   23364215.9574   23364212.103
        38.7004         36.4004
  -1227592.52246   -944090.92745  24291811.4704   24291814.3804   24291809.645
        37.3004         35.3004
 -17488271.05947 -13612369.55547  21396066.2434   21396070.1254   21396065.761
        45.8004         43.2004
 -11952800.33647  -9290370.65947  21099816.0504   21099820.4464   21099816.315
        46.2004         43.7004
 -16043929.47147 -12479757.55847  20324755.4234   20324759.0864   20324755.963
        47.5004         45.1004
  -7878283.32347  -6121792.88046  22471978.2534   22471982.6124   22471977.401
        42.7004         40.2004
 16  2 13  0 19  0.0000000  0  8G05G21G02G07G29G13G20G15
 -13887242.34947 -10797729.13447  21183131.2394   21183134.5054   21183131.090
        47.2004         44.5004
  -4184142.54946  -3249241.11246  23573437.2574   23573440.9544   23573437.909
        39.9004         37.6004
  -1539243.40746  -1174995.30645  23382603.1774   23382607.4604   23382605.014
        38.2004         35.9004
  -1213693.68946   -933260.73145  24294454.4824   24294458.3754   24294453.681
        37.0004         35.0004
 -17432263.00647 -13568726.95247  21406724.1684   21406727.9744   21406723.694
        45.8004         43.2004
 -12002309.18247  -9328948.99947  21090395.1244   21090399.5174   21090395.205
        46.3004         43.7004
 -16080903.86547 -12508568.77947  20317718.9374   20317723.2764   20317719.343
        47.5004         45.1004
  -7979834.61447  -6200923.77946  22452653.7294   22452657.9134   22452652.539
        42.9004         40.2004
 16  2 13  0 19 30.0000000  0  8G05G21G02G07G29G13G20G15
 -13824836.43947 -10749101.18447  21195006.5164   21195010.2744   21195006.207
        47.2004         44.5004
  -4267074.13846  -3313863.14646  23557656.3244   23557659.5634   23557656.480
        40.1004         37.6004
  -1442384.04346  -1099520.61045  23401034.3694   23401040.4104   23401034.721
        37.8004         35.5004
  -1199239.23746   -921997.63345  24297205.1904   24297209.5494   24297204.083
        37.1004         35.2004
 -17375720.03347 -13524667.53647  21417484.1454   21417488.0994   21417483.737
        45.8004         43.2004
 -12051249.93947  -9367084.66847  21081082.3484   21081085.6624   21081082.052
        46.3004         43.7004
 -16117469.74347 -12537061.69347  20310760.8514   20310764.9764   20310761.244
        47.5004         44.9004
  -8081075.91347  -6279813.10946  22433388.1764   22433392.3464   22433388.007
        43.0004         40.4004
 16  2 13  0 20  0.0000000  0  8G05G21G02G07G29G13G20G15
 -13762119.14747 -10700230.60647  21206941.6104   21206944.9584   21206941.124
        47.0004         44.5004
  -4349871.73346  -3378380.77346  23541900.4014   23541903.9304   23541901.111
        40.1004         37.9004
  -1345318.32046  -1023885.10645  23419506.7344   23419511.0154   23419507.829
        37.6004         35.5004
  -1184229.02746   -910301.43145  24300062.0474   24300065.4144   24300062.351
        36.8004         34.6004
 -17318643.89947 -13480192.65647  21428345.1904   21428349.7814   21428345.568
        46.0004         43.3004
 -12099621.23147  -9404776.59747  21071877.1574   21071881.1924   21071876.884
        46.3004         43.7004
 -16153626.70447 -12565235.96147  20303880.3994   20303884.3804   20303880.794
        47.5004         45.1004
  -8182004.90847  -6358459.10246  22414182.3364   22414186.5954   22414181.590
        43.2004         40.7004
 16  2 13  0 20 30.0000000  0  8G05G21G02G07G29G13G20G15
 -13699091.89647 -10651118.50247  21218934.9414   21218938.5344   21218934.786
        47.0004         44.4004
  -4432533.37446  -3442792.46446  23526170.5464   23526173.8164   23526170.880
        40.3004         37.8004
  -1248047.70246   -948089.96945  23438017.2224   23438020.9604   23438018.793
        37.6004         35.5004
  -1168663.54546   -898172.52445  24303023.0424   24303027.3994   24303022.702
        36.4004         34.6004
 -17261036.74547 -13435303.99847  21439306.9864   21439311.3144   21439307.149
        45.8004         43.2004
 -12147421.36847  -9442023.46947  21062781.4244   21062784.8154   21062781.277
        46.3004         43.7004
 -16189373.77047 -12593090.83647  20297078.2884   20297082.1034   20297078.702
        47.5004         45.1004
  -8282618.83247  -6436859.57346  22395035.6224   22395040.0294   22395035.116
        43.2004         40.7004
 16  2 13  0 21  0.0000000  0  8G05G21G02G07G29G13G20G15
 -13635756.35547 -10601766.17047  21230987.2334   21230991.3384   21230986.796
        47.0004         44.2004
  -4515057.79846  -3507097.22446  23510466.7214   23510469.4804   23510467.007
        40.3004         37.8004
  -1150573.87746   -872136.47445  23456566.5924   23456569.5364   23456567.688
        37.8004         35.9004
  -1152542.85546   -885611.03645  24306092.7994   24306095.7524   24306090.922
        36.3004         34.5004
 -17202900.17047 -13390002.81647  21450370.3524   21450374.5924   21450370.148
        45.8004         43.0004
 -12194649.30547  -9478824.47047  21053794.1924   21053797.9704   21053793.742
        46.3004         43.9004
 -16224710.75247 -12620626.15047  20290353.7484   20290357.9574   20290354.252
        47.5004         45.1004
  -8382915.47847  -6515012.81646  22375949.5674   22375954.7124   22375949.457
        43.2004         40.6004
 16  2 13  0 21 30.0000000  0  8G05G21G02G07G29G13G20G15
 -13572113.80247 -10552174.60847  21243098.1024   21243102.0634   21243097.820
        47.0004         44.4004
  -4597443.72446  -3571294.05346  23494789.1904   23494792.4464   23494789.758
        40.1004         37.8004
  -1052898.02146   -796025.55646  23475152.7074   23475156.0634   23475152.629
        38.2004         36.0004
  -1135867.76646   -872617.56045  24309263.7844   24309267.8424   24309264.218
        36.4004         34.6004
 -17144236.57947 -13344290.95847  21461533.8534   21461538.3184   21461533.656
        45.6004         43.0004
 -12241303.58947  -9515178.47247  21044916.1464   21044920.2004   21044916.076
        46.5004         43.9004
 -16259637.14547 -12647841.53347  20283707.4474   20283711.5324   20283707.853
        47.5004         45.1004
  -8482892.74347  -6592917.19746  22356924.6404   22356929.4244   22356923.845
        43.2004         40.7004
 16  2 13  0 22  0.0000000  0  8G05G21G02G07G29G13G20G15
 -13508165.57447 -10502344.85447  21255267.4024   21255270.9074   21255266.771
        47.0004         44.2004
  -4679689.07446  -3635381.35446  23479138.6624   23479142.0094   23479138.590
        40.1004         37.8004
   -955021.48546   -719758.25746  23493778.7124   23493783.0134   23493779.540
        38.3004         36.4004
  -1118638.24246   -859192.01645  24312542.9744   24312546.5244   24312542.119
        36.1004         34.5004
 -17085047.63647 -13298169.74947  21472797.1374   21472801.5894   21472797.289
        45.6004         43.0004
 -12287382.55947  -9551084.17347  21036147.7704   21036151.5754   21036147.557
        46.5004         43.9004
 -16294152.34047 -12674736.50247  20277139.1814   20277143.4674   20277139.447
        47.5004         44.9004
  -8582547.82347  -6670570.51746  22337960.8294   22337965.5774   22337960.509
        43.4004         40.7004
 16  2 13  0 22 30.0000000  0  8G05G21G02G07G29G13G20G15
 -13443913.29447 -10452278.18047  21267494.5714   21267497.5974   21267494.121
        46.9004         44.2004
  -4761792.55046  -3699358.12246  23463514.3694   23463517.5214   23463514.744
        40.3004         37.9004
   -856945.44846   -643335.50146  23512441.4594   23512446.1604   23512441.951
        38.7004         36.6004
  -1100854.99946   -845335.01245  24315927.9424   24315932.0384   24315927.052
        36.3004         34.6004
 -17025335.22247 -13251640.63547  21484160.1574   21484164.2264   21484159.617
        45.6004         42.8004
 -12332885.22047  -9586540.80347  21027488.8154   21027492.6994   21027488.839
        46.5004         43.9004
 -16328256.18747 -12701310.94447  20270649.5064   20270653.6164   20270650.043
        47.5004         45.1004
  -8681878.44047  -6747971.01546  22319058.8314   22319063.8994   22319058.529
        43.4004         40.9004
 16  2 13  0 23  0.0000000  0  8G05G21G02G07G29G13G20G15
 -13379357.92447 -10401975.32647  21279778.8384   21279782.0394   21279778.350
        46.9004         44.2004
  -4843752.83546  -3763223.29946  23447918.4624   23447921.5604   23447918.562
        40.4004         37.9004
   -758671.39146   -566758.45946  23531143.1624   23531146.8264   23531143.955
        38.7004         36.4004
  -1082518.35846   -831046.79145  24319417.4394   24319422.0594   24319414.701
        36.1004         34.3004
 -16965101.93347 -13204705.64247  21495622.2464   21495626.3614   21495621.971
        45.6004         43.0004
 -12377809.71947  -9621546.91447  21018940.3234   21018944.0874   21018939.879
        46.5004         43.9004
 -16361947.82447 -12727564.18247  20264238.6374   20264242.5244   20264239.199
        47.5004         44.9004
  -8780882.03347  -6825116.69246  22300219.2614   22300223.8334   22300218.834
        43.4004         40.9004
 16  2 13  0 23 30.0000000  0  8G05G21G02G07G29G13G20G15
 -13314501.21547 -10351437.66547  21292120.3624   21292124.1054   21292120.044
        46.9004         44.2004
  -4925568.43146  -3826975.73146  23432348.7804   23432352.0354   23432349.511
        40.4004         37.9004
   -660200.77346   -490028.23645  23549880.4884   23549885.3994   23549881.084
        38.2004         35.9004
  -1063629.12146   -816327.98145  24323009.7974   24323017.1264   24323010.060
        36.3004         34.5004
 -16904349.58547 -13157366.18647  21507183.5304   21507186.9614   21507183.131
        45.6004         42.8004
 -12422155.21447  -9656101.85147  21010501.7264   21010505.2234   21010501.504
        46.5004         43.9004
 -16395227.13647 -12753496.11947  20257905.3094   20257909.4464   20257905.905
        47.5004         45.1004
  -8879556.35247  -6902005.77746  22281442.2014   22281446.5114   22281442.387
        43.4004         40.7004
 16  2 13  0 24  0.0000000  0  8G05G21G02G07G29G13G20G15
 -13249344.76847 -10300666.44847  21304519.2674   21304523.0284   21304518.588
        46.9004         44.2004
  -5007237.53046  -3890614.00646  23416808.5964   23416811.0924   23416808.416
        40.4004         37.9004
   -561534.74546   -413145.78445  23568657.0774   23568659.9334   23568657.174
        37.6004         35.3004
  -1044187.43346   -801178.63145  24326712.9814   24326713.5594   24326712.157
        36.3004         34.3004
 -16843080.37647 -13109623.98947  21518842.0744   21518846.2574   21518841.917
        45.5004         42.6004
 -12465920.19347  -9690204.44647  21002173.2084   21002176.7514   21002172.824
        46.5004         43.7004
 -16428093.66947 -12779106.41247  20251651.0954   20251655.0234   20251651.518
        47.5004         44.9004
  -8977898.95047  -6978636.38046  22262728.1624   22262732.1024   22262727.947
        43.6004         40.9004
 16  2 13  0 24 30.0000000  0  8G05G21G02G07G29G13G20G15
 -13183889.82047 -10249662.62547  21316974.7164   21316979.0524   21316973.754
        46.9004         44.4004
  -5088758.80446  -3954137.09446  23401294.7494   23401298.3344   23401295.002
        40.3004         37.9004
   -462674.94346   -336112.33945  23587468.0254   23587472.8744   23587470.404
        37.3004         35.2004
  -1024193.78645   -785599.19245  24330512.8494   24330521.7484   24330514.056
        35.7004         33.8004
 -16781296.10447 -13061480.44347  21530599.3344   21530603.7064   21530599.023
        45.5004         42.8004
 -12509103.43347  -9723853.72947  20993955.6864   20993959.5194   20993955.421
        46.5004         44.0004
 -16460546.63047 -12804394.44747  20245475.6674   20245479.7194   20245476.205
        47.5004         45.2004
  -9075907.67747  -7055006.83046  22244078.0414   22244081.6404   22244076.584
        43.6004         41.1004
 16  2 13  0 25  0.0000000  0  8G05G21G02G07G29G13G20G15
 -13118137.67347 -10198427.22747  21329487.4564   21329491.3104   21329486.946
        46.9004         44.2004
  -5170130.36346  -4017543.52446  23385810.4264   23385813.7264   23385811.067
        40.3004         37.8004
   -363622.48746   -258928.76445  23606319.1694   23606321.9924   23606319.020
        37.1004         35.0004
  -1003648.67345   -769590.10745  24334426.4244   24334430.0994   24334424.657
        35.6004         34.1004
 -16718999.04347 -13012937.32447  21542453.7404   21542458.1594   21542453.348
        45.3004         42.5004
 -12551703.67147  -9757048.72347  20985849.3904   20985853.0194   20985849.164
        46.7004         44.0004
 -16492585.92847 -12829360.16447  20239379.0174   20239382.9054   20239379.630
        47.7004         45.1004
  -9173579.96747  -7131115.11246  22225491.7624   22225495.8734   22225491.737
        43.7004         41.1004
 16  2 13  0 25 30.0000000  0  8G05G21G02G07G29G13G20G15
 -13052089.67847 -10146961.29847  21342056.2064   21342059.8374   21342055.988
        47.0004         44.4004
  -5251350.78946  -4080832.17946  23370354.4354   23370358.3444   23370354.989
        40.3004         37.9004
   -264378.90646   -181596.27145  23625204.3074   23625207.5944   23625206.425
        37.1004         35.2004
   -982552.65046   -753151.65345  24338441.5904   24338443.6634   24338440.734
        36.1004         34.5004
 -16656191.20647 -12963996.20547  21554406.0964   21554410.4784   21554405.516
        45.3004         42.6004
 -12593719.58147  -9789788.40447  20977853.6804   20977857.8654   20977853.341
        46.7004         44.0004
 -16524210.96247 -12854003.06447  20233360.6704   20233364.8334   20233361.120
        47.7004         45.2004
  -9270913.35047  -7206959.30946  22206969.3994   22206973.9294   22206969.045
        43.7004         41.1004
 16  2 13  0 26  0.0000000  0  8G05G21G02G07G29G13G20G15
 -12985747.38047 -10095266.04147  21354680.3544   21354684.0814   21354679.913
        46.9004         44.0004
  -5332419.08946  -4144002.30346  23354927.8934   23354931.5284   23354928.222
        40.4004         37.9004
   -164945.87846   -104116.13445  23644127.0074   23644128.4194   23644127.362
        37.0004         35.2004
   -960906.64046   -736284.62445  24342558.1584   24342561.9164   24342556.964
        36.1004         34.1004
 -16592874.74147 -12914658.74147  21566455.0914   21566459.1044   21566454.648
        45.3004         42.5004
 -12635149.93447  -9822071.80047  20969969.5414   20969973.7254   20969969.624
        46.7004         43.9004
 -16555421.54047 -12878323.01147  20227421.8214   20227425.8114   20227422.210
        47.7004         45.1004
  -9367906.17947  -7282538.14746  22188512.2924   22188516.7584   22188511.884
        43.7004         40.9004
 16  2 13  0 26 30.0000000  0  8G05G21G02G07G29G13G20G15
 -12919112.25447 -10043342.60547  21367361.0464   21367364.6254   21367360.283
        46.9004         44.2004
  -5413333.10346  -4207052.20546  23339530.9484   23339533.7694   23339531.062
        40.4004         38.1004
    -65324.70846    -26489.38245  23663083.8974   23663086.6084   23663083.290
        37.3004         35.3004
   -938711.12746   -718989.44245  24346783.5334   24346787.0504   24346783.163
        36.4004         34.5004
 -16529051.90947 -12864926.70747  21578599.9614   21578604.2254   21578599.851
        45.3004         42.6004
 -12675993.61347  -9853898.04247  20962197.9824   20962201.6604   20962197.359
        46.7004         44.0004
 -16586217.06447 -12902319.54247  20221561.8154   20221565.6714   20221562.027
        47.7004         45.2004
  -9464555.42847  -7357849.25146  22170120.4614   22170124.7794   22170119.940
        43.7004         41.1004
 16  2 13  0 27  0.0000000  0  8G05G21G02G07G29G13G20G15
 -12852185.52647  -9991191.94647  21380096.3394   21380100.2914   21380096.265
        46.7004         44.0004
  -5494091.35246  -4269980.73346  23324162.9534   23324165.7354   23324163.509
        40.6004         38.1004
     34483.58646     51283.17245  23682076.7084   23682080.0874   23682077.560
        37.5004         35.5004
   -915966.50846   -701266.36145  24351111.2634   24351114.9114   24351111.422
        36.4004         34.6004
 -16464724.72047 -12814801.67547  21590841.4274   21590845.4204   21590840.926
        45.3004         42.6004
 -12716249.47647  -9885266.25147  20954537.0534   20954541.1734   20954536.521
        46.7004         44.0004
 -16616596.81747 -12925992.08847  20215780.4944   20215784.5824   20215780.906
        47.7004         45.2004
  -9560858.66547  -7432890.73646  22151794.5254   22151798.8964   22151794.257
        43.7004         41.2004
 16  2 13  0 27 30.0000000  0  8G05G21G02G07G29G13G20G15
 -12784968.65047  -9938815.19847  21392887.5254   21392891.0314   21392887.164
        46.7004         43.9004
  -5574692.12146  -4332786.55946  23308825.1404   23308828.0674   23308825.832
        40.6004         38.3004
    134477.57546    129200.40545  23701105.6654   23701108.1524   23701106.169
        37.6004         35.7004
   -892673.55246   -683116.00445  24355542.1994   24355546.1034   24355541.750
        36.3004         34.3004
 -16399895.71447 -12764285.61447  21603177.5834   21603181.8474   21603176.967
        45.3004         42.5004
 -12755916.31747  -9916175.48447  20946988.7154   20946992.8074   20946988.965
        46.7004         44.0004
 -16646561.49047 -12949341.20847  20210078.3544   20210082.4284   20210078.747
        47.7004         45.2004
  -9656813.93747  -7507661.07546  22133535.2464   22133540.0924   22133534.812
        43.9004         41.2004
 16  2 13  0 28  0.0000000  0  8G05G21G02G07G29G13G20G15
 -12717462.92447  -9886213.37947  21405733.4204   21405736.8874   21405732.950
        46.7004         44.0004
  -5655134.77446  -4395469.16646  23293516.7254   23293520.1274   23293517.800
        40.6004         38.1004
    234655.45346    207260.91545  23720168.4954   23720173.1984   23720168.643
        37.8004         35.9004
   -868832.99546   -664538.91845  24360081.6404   24360085.4784   24360082.187
        36.4004         34.6004
 -16334566.76747 -12713379.98947  21615609.2724   21615613.3664   21615608.711
        45.1004         42.5004
 -12794992.80447  -9946624.70547  20939552.9894   20939556.5594   20939552.680
        46.7004         44.0004
 -16676109.58647 -12972365.70547  20204455.4364   20204459.5104   20204456.202
        47.7004         45.2004
  -9752418.66347  -7582158.25546  22115341.8714   22115346.4364   22115341.571
        43.9004         41.4004
 16  2 13  0 28 30.0000000  0  8G05G21G02G07G29G13G20G15
 -12649669.98747  -9833387.75147  21418634.0364   21418637.6374   21418633.139
        46.5004         43.9004
  -5735416.14346  -4458026.09246  23278240.2574   23278243.0824   23278240.844
        40.4004         37.9004
    335015.41646    285463.31145  23739264.5404   23739270.7844   23739264.680
        37.5004         35.2004
   -844445.52446   -645535.70345  24364717.9784   24364725.7424   24364719.407
        36.3004         34.5004
 -16268740.27147 -12662086.65447  21628135.9444   21628140.0854   21628136.067
        45.1004         42.5004
 -12833477.89647  -9976613.09847  20932229.3804   20932233.0174   20932229.054
        46.7004         44.0004
 -16705240.96947 -12995065.49747  20198911.9464   20198915.8844   20198912.395
        47.7004         45.2004
  -9847670.78247  -7656380.68446  22097216.5294   22097220.9734   22097215.566
        43.9004         41.2004
 16  2 13  0 29  0.0000000  0  8G05G21G02G07G29G13G20G15
 -12581591.45747  -9780339.58947  21431588.9204   21431592.6134   21431588.249
        46.5004         44.0004
  -5815535.40646  -4520456.70746  23262993.7924   23262997.5174   23262994.213
        40.6004         38.3004
    435556.94146    363807.16945  23758397.7644   23758403.1404   23758396.716
        37.1004         35.0004
   -819511.78645   -626106.83145  24369464.7264   24369469.2704   24369465.906
        35.9004         34.1004
 -16202418.60647 -12610407.48747  21640756.2874   21640760.6424   21640756.034
        45.1004         42.3004
 -12871371.07447 -10006140.25847  20925018.2614   20925022.0264   20925018.610
        46.7004         44.0004
 -16733955.47047 -13017440.45047  20193447.8984   20193451.7884   20193448.177
        47.7004         45.2004
  -9942567.78947  -7730326.39846  22079157.3614   22079162.5524   22079157.372
        44.1004         41.4004
 16  2 13  0 29 30.0000000  0  8G05G21G02G07G29G13G20G15
 -12513228.28147  -9727069.61747  21444598.6084   21444601.7324   21444597.924
        46.7004         44.0004
  -5895491.54346  -4582760.22546  23247779.0684   23247782.1774   23247779.784
        40.8004         38.5004
    536278.41246    442291.22845  23777565.2784   23777568.7674   23777564.078
        37.0004         35.0004
   -794032.48745   -606252.79845  24374316.9124   24374316.9274   24374315.952
        35.9004         34.1004
 -16135603.93447 -12558344.15747  21653471.2234   21653475.0664   21653470.179
        45.1004         42.5004
 -12908670.60247 -10035204.83447  20917920.6384   20917924.1524   20917920.323
        46.7004         44.2004
 -16762252.52647 -13039490.11747  20188062.9814   20188067.3334   20188063.795
        47.7004         45.2004
 -10037107.35947  -7803993.59146  22061167.3334   22061172.1344   22061166.922
        44.1004         41.2004
 16  2 13  0 30  0.0000000  0  8G05G21G02G07G29G13G20G15
 -12444582.02947  -9673579.07447  21457661.3824   21457664.7004   21457660.829
        46.7004         44.0004
  -5975282.52946  -4644935.04446  23232595.1104   23232598.2524   23232595.392
        40.9004         38.5004
    637178.41346    520914.38545  23796766.1334   23796770.8224   23796767.320
        36.8004         35.2004
   -768008.08545   -585974.00645  24379261.3854   24379268.9614   24379263.847
        35.7004         33.8004
 -16068298.26447 -12505898.22047  21666278.5334   21666283.0034   21666278.767
        45.1004         42.5004
 -12945375.60747 -10063806.14447  20910935.6104   20910940.0254   20910935.560
        46.7004         44.2004
 -16790131.88747 -13061214.31247  20182757.8034   20182761.9694   20182758.270
        47.7004         45.2004
 -10131287.26247  -7877380.52646  22043245.5754   22043249.9594   22043245.045
        44.1004         41.4004
 16  2 13  0 30 30.0000000  0  8G05G21G02G07G29G13G20G15
 -12375653.71047  -9619868.74547  21470777.6304   21470781.5324   21470777.368
        46.5004         43.9004
  -6054906.43746  -4706979.67346  23217442.9534   23217447.0584   23217443.027
        40.8004         38.3004
    738255.46446    599675.51245  23816001.8954   23816005.8044   23816001.640
        37.3004         35.7004
   -741439.93645   -565271.57745  24384320.2024   24384327.4914   24384323.205
        35.7004         34.1004
 -16000504.19147 -12453071.72347  21679179.5684   21679184.2204   21679179.488
        45.1004         42.5004
 -12981484.99147 -10091943.35347  20904064.6894   20904068.6424   20904064.000
        46.7004         44.2004
 -16817592.88747 -13082612.50947  20177532.3204   20177536.1574   20177532.676
        47.7004         45.2004
 -10225105.46147  -7950485.60446  22025392.6254   22025397.2754   22025391.986
        44.1004         41.6004
 16  2 13  0 31  0.0000000  0  8G05G21G02G07G29G13G20G15
 -12306445.37047  -9565940.21447  21483947.5704   21483951.4394   21483946.823
        46.3004         43.7004
  -6134361.88746  -4768893.04046  23202323.2934   23202326.9754   23202323.996
        40.9004         38.5004
    839507.68646    678573.18045  23835268.7944   23835274.4794   23835270.080
        37.5004         35.7004
   -714328.79945   -544146.00645  24389481.4734   24389484.7574   24389480.213
        35.7004         34.0004
 -15932223.76147 -12399866.23947  21692172.8104   21692177.2854   21692172.760
        45.1004         42.5004
 -13016998.05447 -10119615.87147  20897306.5864   20897310.3484   20897306.436
        46.9004         44.2004
 -16844635.52347 -13103684.70547  20172386.0284   20172390.2584   20172386.655
        47.7004         45.2004
 -10318559.30947  -8023306.77946  22007608.5874   22007613.9284   22007608.637
        44.2004         41.8004
 16  2 13  0 31 30.0000000  0  8G05G21G02G07G29G13G20G15
 -12236957.66147  -9511793.98847  21497170.1754   21497174.6374   21497169.920
        46.3004         43.7004
  -6213647.23146  -4830673.84946  23187236.1134   23187239.0354   23187236.006
