     2.11           OBSERVATION DATA    G                   RINEX VERSION / TYPE
teqc  2008Oct2                          20081215 23:59:51UTCPGM / RUN BY / DATE 
gfzrnx-1.16-8177    FILE PROCESSING     20220323 151242 UTC COMMENT             
upc3                                                        MARKER NAME         
HJS                 gAGE/UPC                                OBSERVER / AGENCY   
1                   ASHTECH UZ-12       -Unknown-           REC # / TYPE / VERS 
-Unknown-           AT2775-1        NONE                    ANT # / TYPE        
        0.0000        0.0000        0.0000                  ANTENNA: DELTA H/E/N
  4789032.0289   176609.7587  4195022.9248                  APPROX POSITION XYZ 
     5    C1    L1    L2    P1    P2                        # / TYPES OF OBSERV 
Linux 2.4.20-8|Pentium IV|gcc -static|Linux|486/DX+         COMMENT             
BIT 2 OF LLI FLAGS DATA COLLECTED UNDER A/S CONDITION       COMMENT             
     1     1                                                WAVELENGTH FACT L1/2
 SNR is mapped to RINEX snr flag value [0-9]                COMMENT             
  L1 & L2: min(max(int(snr_dBHz/6), 0), 9)                  COMMENT             
teqc windowed: start @ 2008 Dec 16 00:00:00.000             COMMENT             
teqc windowed: delta = 86400.000 sec                        COMMENT             
pseudorange smoothing corrections not applied               COMMENT             
GFZRNX.NUM_EPOCHS: 25025                                    COMMENT
     1                                                      # OF SATELLITES     
   G03 25014 24934 25025 24934 25025                        PRN / # OF OBS      
     1.000                                                  INTERVAL            
  2008    12    16     9    43    1.0000000     GPS         TIME OF FIRST OBS   
  2008    12    16    16    40   22.0000000     GPS         TIME OF LAST OBS    
                                                            END OF HEADER      
 08 12 16 09 43 01.0000000  0  1G03                                 
  24824133.4974    -547186.60258   -422587.18056  24824132.9234   24824139.1204 
 08 12 16 09 43 02.0000000  0  1G03                                 
  24823525.2924    -550384.26648   -425078.86346  24823524.8944   24823530.5474 
 08 12 16 09 43 03.0000000  0  1G03                                 
  24822916.9974    -553582.02948   -427570.62546  24822916.1624   24822922.4244 
 08 12 16 09 43 04.0000000  0  1G03                                 
  24822308.7194    -556780.07448   -430062.60846  24822307.3674   24822313.9334 
 08 12 16 09 43 05.0000000  0  1G03                                 
  24821700.4394    -559977.93948   -432554.45146  24821699.1734   24821705.5774 
 08 12 16 09 43 06.0000000  0  1G03                                 
  24821092.2014    -563175.86248   -435046.33946  24821091.0614   24821096.4934 
 08 12 16 09 43 07.0000000  0  1G03                                 
  24820484.0334    -566373.67448   -437538.14046  24820482.0864   24820488.0674 
 08 12 16 09 43 08.0000000  0  1G03                                 
  24819875.6674    -569571.30648   -440029.80146  24819873.2684   24819879.1944 
 08 12 16 09 43 09.0000000  0  1G03                                 
  24819267.3164    -572768.44648   -442521.07846  24819265.2454   24819270.6414 
 08 12 16 09 43 10.0000000  0  1G03                                 
  24818659.1784    -575965.76348   -445012.49446  24818657.1444   24818662.0774 
 08 12 16 09 43 11.0000000  0  1G03                                 
  24818050.6294    -579162.89048   -447503.76346  24818047.7974   24818052.9704 
 08 12 16 09 43 12.0000000  0  1G03                                 
  24817441.9904    -582359.86248   -449994.91246  24817439.2124   24817444.6644 
 08 12 16 09 43 13.0000000  0  1G03                                 
  24816833.2964    -585556.76848   -452486.00746  24816830.6054   24816835.8384 
 08 12 16 09 43 14.0000000  0  1G03                                 
  24816224.5634    -588753.50548   -454976.96846  24816222.4224   24816227.3384 
 08 12 16 09 43 15.0000000  0  1G03                                 
  24815615.9474    -591950.15448   -457467.86446  24815613.7864   24815618.7664 
 08 12 16 09 43 16.0000000  0  1G03                                 
  24815007.4214    -595147.14848   -459959.02946  24815005.5414   24815010.7514 
 08 12 16 09 43 17.0000000  0  1G03                                 
  24814398.5934    -598343.84548   -462449.96046  24814397.2574   24814402.4604 
 08 12 16 09 43 18.0000000  0  1G03                                 
  24813790.0224    -601540.30048   -464940.70246  24813788.9654   24813794.4744 
 08 12 16 09 43 19.0000000  0  1G03                                 
  24813181.7364    -604737.04648   -467431.67246  24813181.4564   24813185.6924 
 08 12 16 09 43 20.0000000  0  1G03                                 
  24812573.4824    -607933.92748   -469922.74746  24812573.1554   24812577.6054 
 08 12 16 09 43 21.0000000  0  1G03                                 
  24811965.4184    -611130.64148   -472413.69146  24811965.3464   24811969.1224 
 08 12 16 09 43 22.0000000  0  1G03                                 
  24811357.0654    -614327.24748   -474904.55146  24811355.7694   24811360.7804 
 08 12 16 09 43 23.0000000  0  1G03                                 
  24810749.1124    -617523.87548   -477395.42846  24810748.1264   24810752.7784 
 08 12 16 09 43 24.0000000  0  1G03                                 
  24810141.0154    -620720.42248   -479886.24246  24810139.8814   24810145.0354 
 08 12 16 09 43 25.0000000  0  1G03                                 
  24809532.8854    -623916.62948   -482376.79046  24809531.7764   24809536.9534 
 08 12 16 09 43 26.0000000  0  1G03                                 
  24808924.7844    -627112.57348   -484867.13346  24808923.9174   24808928.9704 
 08 12 16 09 43 27.0000000  0  1G03                                 
  24808316.8004    -630308.40448   -487357.39046  24808315.6434   24808320.6484 
 08 12 16 09 43 28.0000000  0  1G03                                 
  24807709.0994    -633504.21648   -489847.63146  24807707.9264   24807711.9894 
 08 12 16 09 43 29.0000000  0  1G03                                 
  24807101.3554    -636700.08648   -492337.91746  24807099.7984   24807103.4654 
 08 12 16 09 43 30.0000000  0  1G03                                 
  24806493.5064    -639895.70048   -494828.00346  24806491.4014   24806495.0524 
 08 12 16 09 43 31.0000000  0  1G03                                 
  24805885.4484    -643091.46548   -497318.20946  24805883.8204   24805886.9204 
 08 12 16 09 43 32.0000000  0  1G03                                 
  24805277.6354    -646287.38648   -499808.53646  24805276.1114   24805278.6414 
 08 12 16 09 43 33.0000000  0  1G03                                 
  24804669.7824    -649482.78047   -502298.45446  24804667.9364   24804671.4054 
 08 12 16 09 43 34.0000000  0  1G03                                 
  24804062.2554    -652678.34647   -504788.50446  24804059.5204   24804063.1704 
 08 12 16 09 43 35.0000000  0  1G03                                 
  24803454.3674    -655873.58647   -507278.30246  24803452.0504   24803454.9744 
 08 12 16 09 43 36.0000000  0  1G03                                 
  24802845.9764    -659069.07847   -509768.29846  24802843.2874   24802846.1354 
 08 12 16 09 43 37.0000000  0  1G03                                 
  24802237.5254    -662264.50747   -512258.24446  24802235.6564   24802238.0594 
 08 12 16 09 43 38.0000000  0  1G03                                 
  24801629.0884    -665459.79947   -514748.08246  24801627.1574   24801629.7734 
 08 12 16 09 43 39.0000000  0  1G03                                 
  24801020.8494    -668654.80147   -517237.69446  24801018.5074   24801021.4454 
 08 12 16 09 43 40.0000000  0  1G03                                 
  24800412.5374    -671849.29447   -519726.90946  24800410.7464   24800413.9114 
 08 12 16 09 43 41.0000000  0  1G03                                 
  24799804.4894    -675043.61547   -522215.99046  24799802.7904   24799806.6654 
 08 12 16 09 43 42.0000000  0  1G03                                 
  24799196.3424    -678238.11647   -524705.21246  24799195.3604   24799198.8684 
 08 12 16 09 43 43.0000000  0  1G03                                 
  24798588.5774    -681432.72647   -527194.51746  24798587.6374   24798591.1064 
 08 12 16 09 43 44.0000000  0  1G03                                 
  24797980.6564    -684627.38147   -529683.85646  24797979.7004   24797982.5954 
 08 12 16 09 43 45.0000000  0  1G03                                 
  24797372.6614    -687821.60447   -532172.85846  24797370.9794   24797374.6274 
 08 12 16 09 43 46.0000000  0  1G03                                 
  24796764.7554    -691015.80147   -534661.84146  24796763.1704   24796766.5664 
 08 12 16 09 43 47.0000000  0  1G03                                 
  24796157.0134    -694210.20547   -537150.98546  24796155.8094   24796158.8104 
 08 12 16 09 43 48.0000000  0  1G03                                 
  24795548.9294    -697404.39747   -539639.96346  24795547.7494   24795551.1534 
 08 12 16 09 43 49.0000000  0  1G03                                 
  24794941.5034    -700598.53147   -542128.89746  24794940.2914   24794943.8544 
 08 12 16 09 43 50.0000000  0  1G03                                 
  24794334.1664    -703792.38947   -544617.61546  24794333.0174   24794336.3104 
 08 12 16 09 43 51.0000000  0  1G03                                 
  24793726.7274    -706986.41147   -547106.46146  24793725.9964   24793729.0184 
 08 12 16 09 43 52.0000000  0  1G03                                 
  24793119.3744    -710180.11547   -549595.05946  24793118.5584   24793121.4784 
 08 12 16 09 43 53.0000000  0  1G03                                 
  24792511.6724    -713373.91047   -552083.73046  24792510.5354   24792513.7684 
 08 12 16 09 43 54.0000000  0  1G03                                 
  24791904.0734    -716567.60947   -554572.32546  24791903.0394   24791905.9924 
 08 12 16 09 43 55.0000000  0  1G03                                 
  24791296.5124    -719760.94847   -557060.64146  24791294.3584   24791297.7464 
 08 12 16 09 43 56.0000000  0  1G03                                 
  24790689.0044    -722954.39347   -559549.04046  24790687.0844   24790690.1944 
 08 12 16 09 43 57.0000000  0  1G03                                 
  24790081.2844    -726147.58547   -562037.23846  24790078.9454   24790082.2854 
 08 12 16 09 43 58.0000000  0  1G03                                 
  24789473.5164    -729341.06947   -564525.66546  24789471.0734   24789473.8414 
 08 12 16 09 43 59.0000000  0  1G03                                 
  24788865.7244    -732534.57147   -567014.10746  24788863.0874   24788866.5894 
 08 12 16 09 44 00.0000000  0  1G03                                 
  24788258.0334    -735728.19347   -569502.64246  24788256.5824   24788258.3204 
 08 12 16 09 44 01.0000000  0  1G03                                 
  24787650.2644    -738921.71847   -571991.10446  24787648.0594   24787650.9484 
 08 12 16 09 44 02.0000000  0  1G03                                 
  24787042.4964    -742114.79147   -574479.21046  24787040.3424   24787043.0814 
 08 12 16 09 44 03.0000000  0  1G03                                 
  24786434.6374    -745307.40847   -576966.96046  24786432.8404   24786435.1404 
 08 12 16 09 44 04.0000000  0  1G03                                 
  24785826.9414    -748500.04247   -579454.72646  24785825.2724   24785828.1024 
 08 12 16 09 44 05.0000000  0  1G03                                 
  24785219.1754    -751692.82647   -581942.60846  24785217.5984   24785220.6134 
 08 12 16 09 44 06.0000000  0  1G03                                 
  24784611.5614    -754885.30047   -584430.24946  24784609.6334   24784614.0034 
 08 12 16 09 44 07.0000000  0  1G03                                 
  24784003.9344    -758077.87647   -586917.96746  24784001.8144   24784006.6144 
 08 12 16 09 44 08.0000000  0  1G03                                 
  24783396.4074    -761270.25647   -589405.53446  24783394.6714   24783399.0974 
 08 12 16 09 44 09.0000000  0  1G03                                 
  24782788.9624    -764462.72847   -591893.17446  24782787.0564   24782791.2764 
 08 12 16 09 44 10.0000000  0  1G03                                 
  24782181.5644    -767655.32647   -594380.91146  24782180.0914   24782183.8434 
 08 12 16 09 44 11.0000000  0  1G03                                 
  24781574.1034    -770847.62647   -596868.41646  24781571.8204   24781576.2474 
 08 12 16 09 44 12.0000000  0  1G03                                 
  24780966.5944    -774039.76647   -599355.79546  24780964.2414   24780968.6344 
 08 12 16 09 44 13.0000000  0  1G03                                 
  24780359.1544    -777231.99047   -601843.23946  24780357.1004   24780361.4274 
 08 12 16 09 44 14.0000000  0  1G03                                 
  24779751.9064    -780423.78547   -604330.34946  24779749.7594   24779754.5104 
 08 12 16 09 44 15.0000000  0  1G03                                 
  24779144.6014    -783615.18147   -606817.14446  24779142.6654   24779147.0214 
 08 12 16 09 44 16.0000000  0  1G03                                 
  24778537.7544    -786806.79947   -609304.11846  24778535.6644   24778539.2514 
 08 12 16 09 44 17.0000000  0  1G03                                 
  24777930.3974    -789998.63047   -611791.25946  24777928.5684   24777931.9074 
 08 12 16 09 44 18.0000000  0  1G03                                 
  24777323.0394    -793190.56747   -614278.48246  24777321.1154   24777324.9834 
 08 12 16 09 44 19.0000000  0  1G03                                 
  24776715.6064    -796382.83447   -616765.96046  24776713.1074   24776716.9864 
 08 12 16 09 44 20.0000000  0  1G03                                 
  24776108.2294    -799574.85047   -619253.24446  24776105.2774   24776109.1974 
 08 12 16 09 44 21.0000000  0  1G03                                 
  24775500.6724    -802766.42247   -621740.18146  24775498.2844   24775501.6844 
 08 12 16 09 44 22.0000000  0  1G03                                 
  24774893.3474    -805957.70147   -624226.88946  24774890.3724   24774895.0114 
 08 12 16 09 44 23.0000000  0  1G03                                 
  24774285.9554    -809149.08847   -626713.68246  24774283.0864   24774287.7244 
 08 12 16 09 44 24.0000000  0  1G03                                 
  24773678.3044    -812340.35447   -629200.38146  24773676.0164   24773679.5624 
 08 12 16 09 44 25.0000000  0  1G03                                 
  24773070.9084    -815531.42447   -631686.92746  24773069.0594   24773072.1594 
 08 12 16 09 44 26.0000000  0  1G03                                 
  24772463.7054    -818722.52747   -634173.49846  24772462.4004   24772466.0454 
 08 12 16 09 44 27.0000000  0  1G03                                 
  24771856.0154    -821913.16347   -636659.70246  24771854.6934   24771857.9404 
 08 12 16 09 44 28.0000000  0  1G03                                 
  24771248.8684    -825103.64247   -639145.78846  24771247.5444   24771251.2954 
 08 12 16 09 44 29.0000000  0  1G03                                 
  24770641.5694    -828294.08647   -641631.84546  24770640.7394   24770644.2114 
 08 12 16 09 44 30.0000000  0  1G03                                 
  24770033.8234    -831484.70147   -644118.03546  24770033.7134   24770037.4234 
 08 12 16 09 44 31.0000000  0  1G03                                 
  24769426.4344    -834675.04647   -646604.01546  24769426.7804   24769430.1444 
 08 12 16 09 44 32.0000000  0  1G03                                 
  24768819.0984    -837865.75147   -649090.27446  24768819.9764   24768823.0224 
 08 12 16 09 44 33.0000000  0  1G03                                 
  24768211.9614    -841056.46447   -651576.54346  24768213.1464   24768216.2784 
 08 12 16 09 44 34.0000000  0  1G03                                 
  24767605.0884    -844247.17947   -654062.81346  24767606.3854   24767609.8264 
 08 12 16 09 44 35.0000000  0  1G03                                 
  24766998.3014    -847437.55347   -656548.81646  24766999.2814   24767002.7124 
 08 12 16 09 44 36.0000000  0  1G03                                 
  24766391.8504    -850627.42847   -659034.42946  24766392.7094   24766396.1824 
 08 12 16 09 44 37.0000000  0  1G03                                 
  24765785.1344    -853817.19047   -661519.95446  24765785.5714   24765789.1054 
 08 12 16 09 44 38.0000000  0  1G03                                 
  24765178.5114    -857006.67947   -664005.26846  24765178.0494   24765181.7364 
 08 12 16 09 44 39.0000000  0  1G03                                 
  24764571.7194    -860196.29247   -666490.67946  24764569.6774   24764575.1464 
 08 12 16 09 44 40.0000000  0  1G03                                 
  24763964.8234    -863385.71547   -668975.94146  24763962.7974   24763967.9174 
 08 12 16 09 44 41.0000000  0  1G03                                 
  24763357.9394    -866575.00247   -671461.09746  24763356.3504   24763360.7254 
 08 12 16 09 44 42.0000000  0  1G03                                 
  24762751.0324    -869764.16047   -673946.15346  24762749.0564   24762753.6494 
 08 12 16 09 44 43.0000000  0  1G03                                 
  24762143.8834    -872953.92447   -676431.68646  24762141.5914   24762146.5794 
 08 12 16 09 44 44.0000000  0  1G03                                 
  24761536.9084    -876143.19947   -678916.83346  24761534.8124   24761540.1104 
 08 12 16 09 44 45.0000000  0  1G03                                 
  24760930.0264    -879332.43847   -681401.95346  24760927.4184   24760932.9754 
 08 12 16 09 44 46.0000000  0  1G03                                 
  24760322.8564    -882521.59647   -683887.00946  24760321.1574   24760325.2874 
 08 12 16 09 44 47.0000000  0  1G03                                 
  24759715.7814    -885710.91647   -686372.19346  24759714.1084   24759718.3364 
 08 12 16 09 44 48.0000000  0  1G03                                 
  24759108.5924    -888900.14747   -688857.30746  24759107.5074   24759111.5174 
 08 12 16 09 44 49.0000000  0  1G03                                 
  24758501.6484    -892089.18747   -691342.27146  24758501.4704   24758504.9384 
 08 12 16 09 44 50.0000000  0  1G03                                 
  24757894.7744    -895278.08847   -693827.12646  24757894.7784   24757898.4164 
 08 12 16 09 44 51.0000000  0  1G03                                 
  24757288.1844    -898466.58147   -696311.66346  24757288.4464   24757291.8334 
 08 12 16 09 44 52.0000000  0  1G03                                 
  24756681.3894    -901654.83547   -698796.01746  24756681.0414   24756685.0984 
 08 12 16 09 44 53.0000000  0  1G03                                 
  24756074.5194    -904843.07847   -701280.36046  24756073.6644   24756078.6864 
 08 12 16 09 44 54.0000000  0  1G03                                 
  24755467.7444    -908031.27147   -703764.66546  24755467.6934   24755471.7534 
 08 12 16 09 44 55.0000000  0  1G03                                 
  24754860.9494    -911219.42847   -706248.93946  24754861.2384   24754864.4254 
 08 12 16 09 44 56.0000000  0  1G03                                 
  24754254.1584    -914407.53147   -708733.17346  24754254.7884   24754257.7114 
 08 12 16 09 44 57.0000000  0  1G03                                 
  24753647.8484    -917595.76647   -711217.51146  24753647.8244   24753651.2074 
 08 12 16 09 44 58.0000000  0  1G03                                 
  24753041.5224    -920783.76547   -713701.66146  24753040.9104   24753045.2214 
 08 12 16 09 44 59.0000000  0  1G03                                 
  24752434.9354    -923971.75947   -716185.81146  24752434.4024   24752438.3294 
 08 12 16 09 45 00.0000000  0  1G03                                 
  24751828.5754    -927159.76547   -718669.97346  24751827.1584   24751831.4074 
 08 12 16 09 45 01.0000000  0  1G03                                 
  24751222.2774    -930347.81347   -721154.16446  24751221.0584   24751224.4504 
 08 12 16 09 45 02.0000000  0  1G03                                 
  24750615.6444    -933535.66447   -723638.20346  24750614.1394   24750617.8714 
 08 12 16 09 45 03.0000000  0  1G03                                 
  24750009.2524    -936723.24247   -726122.02746  24750007.8664   24750011.4944 
 08 12 16 09 45 04.0000000  0  1G03                                 
  24749402.7114    -939910.64347   -728605.71546  24749401.0264   24749405.0504 
 08 12 16 09 45 05.0000000  0  1G03                                 
  24748796.3474    -943098.11747   -731089.46046  24748793.8004   24748798.3224 
 08 12 16 09 45 06.0000000  0  1G03                                 
  24748189.8094    -946285.33747   -733573.00746  24748187.8024   24748190.8274 
 08 12 16 09 45 07.0000000  0  1G03                                 
  24747582.9844    -949472.52047   -736056.52646  24747580.5594   24747583.9584 
 08 12 16 09 45 08.0000000  0  1G03                                 
  24746976.1864    -952659.86747   -738540.17446  24746974.8114   24746976.8494 
 08 12 16 09 45 09.0000000  0  1G03                                 
  24746369.6094    -955847.09247   -741023.72446  24746368.6884   24746370.5694 
 08 12 16 09 45 10.0000000  0  1G03                                 
  24745762.8704    -959034.05147   -743507.06846  24745761.6774   24745763.9454 
 08 12 16 09 45 11.0000000  0  1G03                                 
  24745156.3874    -962221.38147   -745990.70246  24745155.4854   24745157.2544 
 08 12 16 09 45 12.0000000  0  1G03                                 
  24744549.7294    -965408.58347   -748474.23546  24744548.7064   24744550.5504 
 08 12 16 09 45 13.0000000  0  1G03                                 
  24743943.1264    -968595.13647   -750957.26446  24743941.9564   24743943.8154 
 08 12 16 09 45 14.0000000  0  1G03                                 
  24743336.8114    -971781.69847   -753440.30446  24743336.5224   24743338.3104 
 08 12 16 09 45 15.0000000  0  1G03                                 
  24742730.6404    -974968.27447   -755923.34946  24742729.5944   24742732.2354 
 08 12 16 09 45 16.0000000  0  1G03                                 
  24742124.0594    -978155.01747   -758406.52746  24742123.0154   24742125.8604 
 08 12 16 09 45 17.0000000  0  1G03                                 
  24741517.3564    -981341.95947   -760889.85846  24741516.2764   24741519.0084 
 08 12 16 09 45 18.0000000  0  1G03                                 
  24740910.9594    -984528.49347   -763372.86946  24740909.9034   24740913.4154 
 08 12 16 09 45 19.0000000  0  1G03                                 
  24740304.5914    -987715.26347   -765856.06746  24740304.2814   24740307.5684 
 08 12 16 09 45 20.0000000  0  1G03                                 
  24739698.4234    -990901.85547   -768339.12446  24739697.9694   24739700.4684 
 08 12 16 09 45 21.0000000  0  1G03                                 
  24739092.0994    -994088.24447   -770822.02546  24739091.1754   24739093.5414 
 08 12 16 09 45 22.0000000  0  1G03                                 
  24738486.1644    -997274.39347   -773304.73746  24738484.9664   24738487.0514 
 08 12 16 09 45 23.0000000  0  1G03                                 
  24737880.1044   -1000460.48847   -775787.40846  24737878.8584   24737881.4074 
 08 12 16 09 45 24.0000000  0  1G03                                 
  24737273.8694   -1003646.35447   -778269.90246  24737272.4664   24737275.1374 
 08 12 16 09 45 25.0000000  0  1G03                                 
  24736667.6404   -1006832.49947   -780752.61246  24736666.9264   24736668.4474 
 08 12 16 09 45 26.0000000  0  1G03                                 
  24736061.4764   -1010018.63047   -783235.31246  24736061.2644   24736061.5264 
 08 12 16 09 45 27.0000000  0  1G03                                 
  24735455.2254   -1013204.24447   -785717.60746  24735455.2964   24735455.5294 
 08 12 16 09 45 28.0000000  0  1G03                                 
  24734849.0754   -1016389.99147   -788200.00846  24734848.7164   24734849.6984 
 08 12 16 09 45 29.0000000  0  1G03                                 
  24734242.7854   -1019575.94547   -790682.57346  24734241.5164   24734243.9624 
 08 12 16 09 45 30.0000000  0  1G03                                 
  24733636.8214   -1022761.00447   -793164.43646  24733634.5154   24733638.7204 
 08 12 16 09 45 31.0000000  0  1G03                                 
  24733030.7304   -1025945.81747   -795646.10746  24733028.1854   24733032.6884 
 08 12 16 09 45 32.0000000  0  1G03                                 
  24732424.7104   -1029130.33747   -798127.55146  24732421.7934   24732426.0384 
 08 12 16 09 45 33.0000000  0  1G03                                 
  24731818.6314   -1032315.27847   -800609.32546  24731815.3204   24731820.0154 
 08 12 16 09 45 34.0000000  0  1G03                                 
  24731212.4624   -1035500.06747   -803090.97946  24731209.7154   24731214.2264 
 08 12 16 09 45 35.0000000  0  1G03                                 
  24730606.3914   -1038684.84047   -805572.62146  24730603.7144   24730608.2414 
 08 12 16 09 45 36.0000000  0  1G03                                 
  24730000.3244   -1041869.76647   -808054.38146  24729998.3724   24730001.7604 
 08 12 16 09 45 37.0000000  0  1G03                                 
  24729394.3714   -1045054.64847   -810536.10546  24729393.0084   24729395.0614 
 08 12 16 09 45 38.0000000  0  1G03                                 
  24728788.1924   -1048239.42147   -813017.74746  24728787.5554   24728788.8214 
 08 12 16 09 45 39.0000000  0  1G03                                 
  24728181.6864   -1051424.06347   -815499.28646  24728180.7834   24728182.6334 
 08 12 16 09 45 40.0000000  0  1G03                                 
  24727575.3274   -1054608.58147   -817980.72746  24727575.5244   24727576.2024 
 08 12 16 09 45 41.0000000  0  1G03                                 
  24726969.0304   -1057793.14447   -820462.20446  24726969.1894   24726971.0094 
 08 12 16 09 45 42.0000000  0  1G03                                 
  24726362.8984   -1060977.54447   -822943.55346  24726362.5784   24726365.0324 
 08 12 16 09 45 43.0000000  0  1G03                                 
  24725756.8814   -1064161.72747   -825424.73146  24725756.2044   24725758.9994 
 08 12 16 09 45 44.0000000  0  1G03                                 
  24725150.9694   -1067346.19947   -827906.13746  24725150.3304   24725154.0104 
 08 12 16 09 45 45.0000000  0  1G03                                 
  24724545.0434   -1070530.04047   -830387.04846  24724544.2174   24724547.6614 
 08 12 16 09 45 46.0000000  0  1G03                                 
  24723939.2384   -1073713.71047   -832867.83246  24723939.8324   24723942.5024 
 08 12 16 09 45 47.0000000  0  1G03                                 
  24723333.4534   -1076897.27947   -835348.53346  24723333.9614   24723337.0064 
 08 12 16 09 45 48.0000000  0  1G03                                 
  24722727.8194   -1080080.88747   -837829.26946  24722727.7804   24722732.1854 
 08 12 16 09 45 49.0000000  0  1G03                                 
  24722122.4364   -1083264.08347   -840309.68246  24722122.0414   24722126.3094 
 08 12 16 09 45 50.0000000  0  1G03                                 
  24721517.0324   -1086447.69047   -842790.41446  24721516.9734   24721520.2344 
 08 12 16 09 45 51.0000000  0  1G03                                 
  24720911.2324   -1089631.10347   -845270.99646  24720910.9724   24720913.8244 
 08 12 16 09 45 52.0000000  0  1G03                                 
  24720305.5824   -1092814.37347   -847751.46546  24720305.7224   24720307.7024 
 08 12 16 09 45 53.0000000  0  1G03                                 
  24719699.6054   -1095997.65947   -850231.95046  24719698.9334   24719700.9974 
 08 12 16 09 45 54.0000000  0  1G03                                 
  24719093.4514   -1099180.89947   -852712.39846  24719093.2404   24719094.8104 
 08 12 16 09 45 55.0000000  0  1G03                                 
  24718487.2454   -1102364.20847   -855192.90146  24718487.1064   24718489.1294 
 08 12 16 09 45 56.0000000  0  1G03                                 
  24717881.4224   -1105547.57347   -857673.44846  24717881.5854   24717883.8974 
 08 12 16 09 45 57.0000000  0  1G03                                 
  24717275.7844   -1108730.59147   -860153.72046  24717276.4214   24717279.5274 
 08 12 16 09 45 58.0000000  0  1G03                                 
  24716670.1244   -1111913.54547   -862633.94546  24716669.8214   24716674.7084 
 08 12 16 09 45 59.0000000  0  1G03                                 
  24716064.3474   -1115096.10947   -865113.86446  24716064.2744   24716068.6184 
 08 12 16 09 46 00.0000000  0  1G03                                 
  24715458.7374   -1118278.49247   -867593.64446  24715458.4884   24715462.7154 
 08 12 16 09 46 01.0000000  0  1G03                                 
  24714853.1034   -1121461.03647   -870073.54746  24714852.4944   24714856.9794 
 08 12 16 09 46 02.0000000  0  1G03                                 
  24714247.5324   -1124643.51547   -872553.40346  24714246.7984   24714250.7704 
 08 12 16 09 46 03.0000000  0  1G03                                 
  24713642.0654   -1127826.06447   -875033.31546  24713641.1874   24713645.2454 
 08 12 16 09 46 04.0000000  0  1G03                                 
  24713036.5354   -1131008.71947   -877513.30846  24713036.2374   24713040.0814 
 08 12 16 09 46 05.0000000  0  1G03                                 
  24712431.0824   -1134191.43847   -879993.35046  24712431.2614   24712434.6614 
 08 12 16 09 46 06.0000000  0  1G03                                 
  24711825.5324   -1137373.74947   -882473.07146  24711824.8554   24711828.6414 
 08 12 16 09 46 07.0000000  0  1G03                                 
  24711219.9424   -1140556.13747   -884952.85446  24711219.5344   24711223.2844 
 08 12 16 09 46 08.0000000  0  1G03                                 
  24710614.2834   -1143738.33347   -887432.48746  24710613.7704   24710618.1494 
 08 12 16 09 46 09.0000000  0  1G03                                 
  24710008.6644   -1146920.23147   -889911.88846  24710007.4024   24710012.9004 
 08 12 16 09 46 10.0000000  0  1G03                                 
  24709403.1994   -1150102.19247   -892391.33846  24709401.8344   24709406.3494 
 08 12 16 09 46 11.0000000  0  1G03                                 
  24708797.6264   -1153284.02647   -894870.68746  24708796.4804   24708801.0674 
 08 12 16 09 46 12.0000000  0  1G03                                 
  24708192.0394   -1156465.73247   -897349.93846  24708190.1814   24708195.0414 
 08 12 16 09 46 13.0000000  0  1G03                                 
  24707586.5924   -1159647.43347   -899829.18446  24707585.5854   24707589.9634 
 08 12 16 09 46 14.0000000  0  1G03                                 
  24706981.0104   -1162829.08847   -902308.39646  24706979.5384   24706985.4134 
 08 12 16 09 46 15.0000000  0  1G03                                 
  24706375.3244   -1166010.57647   -904787.47746  24706373.5954   24706379.8904 
 08 12 16 09 46 16.0000000  0  1G03                                 
  24705769.6364   -1169191.59147   -907266.19146  24705768.5794   24705773.7104 
 08 12 16 09 46 17.0000000  0  1G03                                 
  24705164.1484   -1172372.81647   -909745.06746  24705162.8714   24705168.6444 
 08 12 16 09 46 18.0000000  0  1G03                                 
  24704558.5394   -1175554.33147   -912224.17246  24704557.5604   24704563.6614 
 08 12 16 09 46 19.0000000  0  1G03                                 
  24703953.2834   -1178735.77647   -914703.22146  24703952.2794   24703958.7844 
 08 12 16 09 46 20.0000000  0  1G03                                 
  24703348.2374   -1181916.56347   -917181.75546  24703347.6344   24703353.1834 
 08 12 16 09 46 21.0000000  0  1G03                                 
  24702742.9814   -1185097.12947   -919660.11946  24702742.6224   24702746.6814 
 08 12 16 09 46 22.0000000  0  1G03                                 
  24702137.5694   -1188278.01447   -922138.73446  24702137.0704   24702141.4514 
 08 12 16 09 46 23.0000000  0  1G03                                 
  24701532.0464   -1191458.82547   -924617.28946  24701531.9134   24701535.5384 
 08 12 16 09 46 24.0000000  0  1G03                                 
  24700926.6594   -1194639.34547   -927095.61846  24700927.1874   24700931.1064 
 08 12 16 09 46 25.0000000  0  1G03                                 
  24700321.4424   -1197819.83647   -929573.92646  24700321.5984   24700325.7084 
 08 12 16 09 46 26.0000000  0  1G03                                 
  24699716.1184   -1201000.01747   -932051.99046  24699715.8674   24699720.6494 
 08 12 16 09 46 27.0000000  0  1G03                                 
  24699110.7654   -1204179.92147   -934529.83846  24699110.7964   24699115.6254 
 08 12 16 09 46 28.0000000  0  1G03                                 
  24698505.6274   -1207360.25047   -937008.01946  24698505.8214   24698510.1944 
 08 12 16 09 46 29.0000000  0  1G03                                 
  24697900.3734   -1210540.76247   -939486.34346  24697900.6694   24697905.1574 
 08 12 16 09 46 30.0000000  0  1G03                                 
  24697295.1674   -1213721.15947   -941964.57646  24697295.1764   24697299.5224 
 08 12 16 09 46 31.0000000  0  1G03                                 
  24696689.8674   -1216901.31647   -944442.62146  24696689.6004   24696693.7494 
 08 12 16 09 46 32.0000000  0  1G03                                 
  24696085.0204   -1220081.28847   -946920.52346  24696084.9404   24696089.5794 
 08 12 16 09 46 33.0000000  0  1G03                                 
  24695480.1824   -1223261.15647   -949398.34246  24695479.8914   24695485.2194 
 08 12 16 09 46 34.0000000  0  1G03                                 
  24694875.2564   -1226441.18547   -951876.28946  24694874.6124   24694880.2294 
 08 12 16 09 46 35.0000000  0  1G03                                 
  24694270.2534   -1229620.78847   -954353.90246  24694269.3034   24694274.6644 
 08 12 16 09 46 36.0000000  0  1G03                                 
  24693665.0594   -1232800.44947   -956831.55846  24693663.4534   24693669.7654 
 08 12 16 09 46 37.0000000  0  1G03                                 
  24693059.8374   -1235979.87747   -959309.03446  24693058.0664   24693063.9344 
 08 12 16 09 46 38.0000000  0  1G03                                 
  24692454.5084   -1239159.22647   -961786.45146  24692452.2784   24692458.9304 
 08 12 16 09 46 39.0000000  0  1G03                                 
  24691849.3064   -1242338.44447   -964263.76246  24691847.4234   24691853.4434 
 08 12 16 09 46 40.0000000  0  1G03                                 
  24691244.3724   -1245517.49947   -966740.94746  24691242.5264   24691248.4714 
 08 12 16 09 46 41.0000000  0  1G03                                 
  24690639.4564   -1248696.50347   -969218.09246  24690636.9714   24690643.1384 
 08 12 16 09 46 42.0000000  0  1G03                                 
  24690035.0314   -1251875.20147   -971694.99646  24690033.4614   24690038.3814 
 08 12 16 09 46 43.0000000  0  1G03                                 
  24689430.1294   -1255054.16747   -974172.10946  24689428.3824   24689432.7774 
 08 12 16 09 46 44.0000000  0  1G03                                 
  24688825.1304   -1258233.12047   -976649.21146  24688822.8884   24688827.4694 
 08 12 16 09 46 45.0000000  0  1G03                                 
  24688220.2864   -1261411.92847   -979126.20346  24688217.7754   24688222.4524 
 08 12 16 09 46 46.0000000  0  1G03                                 
  24687615.4594   -1264590.84547   -981603.27946  24687613.6644   24687617.8564 
 08 12 16 09 46 47.0000000  0  1G03                                 
  24687010.7434   -1267770.00647   -984080.54446  24687009.5234   24687014.3994 
 08 12 16 09 46 48.0000000  0  1G03                                 
  24686405.8674   -1270948.70347   -986557.45046  24686404.8764   24686409.2674 
 08 12 16 09 46 49.0000000  0  1G03                                 
  24685800.9934   -1274127.39747   -989034.35446  24685800.1524   24685804.0854 
 08 12 16 09 46 50.0000000  0  1G03                                 
  24685195.7724   -1277306.08347   -991511.25046  24685194.4964   24685198.5124 
 08 12 16 09 46 51.0000000  0  1G03                                 
  24684590.6514   -1280484.56947   -993987.99146  24684589.5654   24684592.7354 
 08 12 16 09 46 52.0000000  0  1G03                                 
  24683985.7444   -1283662.62647   -996464.39646  24683984.2074   24683988.4044 
 08 12 16 09 46 53.0000000  0  1G03                                 
  24683380.8524   -1286840.56847   -998940.71446  24683379.4344   24683384.3654 
 08 12 16 09 46 54.0000000  0  1G03                                 
  24682776.0954   -1290018.60447  -1001417.10446  24682774.3464   24682780.1574 
 08 12 16 09 46 55.0000000  0  1G03                                 
  24682171.5694   -1293196.64247  -1003893.49546  24682170.1044   24682175.0894 
 08 12 16 09 46 56.0000000  0  1G03                                 
  24681567.2374   -1296374.30647  -1006369.59346  24681566.1434   24681570.8154 
 08 12 16 09 46 57.0000000  0  1G03                                 
  24680962.9894   -1299552.04047  -1008845.74746  24680960.8474   24680966.2314 
 08 12 16 09 46 58.0000000  0  1G03                                 
  24680358.8924   -1302729.66847  -1011321.82046  24680357.1714   24680362.4924 
 08 12 16 09 46 59.0000000  0  1G03                                 
  24679754.3524   -1305906.89947  -1013797.58346  24679751.7824   24679757.5294 
 08 12 16 09 47 00.0000000  0  1G03                                 
  24679150.0894   -1309084.10447  -1016273.32646  24679147.5514   24679153.2144 
 08 12 16 09 47 01.0000000  0  1G03                                 
  24678545.6064   -1312261.05347  -1018748.87046  24678542.9944   24678548.1674 
 08 12 16 09 47 02.0000000  0  1G03                                 
  24677941.5704   -1315437.81447  -1021224.26746  24677939.7824   24677943.8284 
 08 12 16 09 47 03.0000000  0  1G03                                 
  24677337.1504   -1318614.55747  -1023699.65146  24677334.5124   24677338.8694 
 08 12 16 09 47 04.0000000  0  1G03                                 
  24676732.5234   -1321791.21147  -1026174.96646  24676730.2204   24676733.9584 
 08 12 16 09 47 05.0000000  0  1G03                                 
  24676127.8774   -1324967.98647  -1028650.37546  24676125.7604   24676129.8474 
 08 12 16 09 47 06.0000000  0  1G03                                 
  24675523.1204   -1328144.70247  -1031125.73846  24675521.1954   24675525.4604 
 08 12 16 09 47 07.0000000  0  1G03                                 
  24674918.6374   -1331321.51347  -1033601.17646  24674916.2624   24674921.8464 
 08 12 16 09 47 08.0000000  0  1G03                                 
  24674313.9794   -1334498.18547  -1036076.50646  24674311.8844   24674317.3124 
 08 12 16 09 47 09.0000000  0  1G03                                 
  24673709.4274   -1337675.16747  -1038552.07646  24673707.4614   24673712.4584 
 08 12 16 09 47 10.0000000  0  1G03                                 
  24673104.7634   -1340852.18947  -1041027.67746  24673103.6474   24673107.3184 
 08 12 16 09 47 11.0000000  0  1G03                                 
  24672500.3704   -1344028.84347  -1043502.99146  24672499.2444   24672503.3024 
 08 12 16 09 47 12.0000000  0  1G03                                 
  24671895.6614   -1347205.20747  -1045978.07846  24671894.1524   24671898.8284 
 08 12 16 09 47 13.0000000  0  1G03                                 
  24671290.9194   -1350381.34547  -1048452.99046  24671288.6494   24671294.2714 
 08 12 16 09 47 14.0000000  0  1G03                                 
  24670686.3304   -1353557.32647  -1050927.77846  24670684.3574   24670690.2214 
 08 12 16 09 47 15.0000000  0  1G03                                 
  24670081.8124   -1356732.89247  -1053402.24546  24670080.2284   24670085.7244 
 08 12 16 09 47 16.0000000  0  1G03                                 
  24669477.7864   -1359908.64547  -1055876.85846  24669477.0654   24669481.7904 
 08 12 16 09 47 17.0000000  0  1G03                                 
  24668873.7034   -1363084.30947  -1058351.40146  24668872.2554   24668877.5434 
 08 12 16 09 47 18.0000000  0  1G03                                 
  24668269.6594   -1366259.82347  -1060825.82646  24668268.1464   24668273.3724 
 08 12 16 09 47 19.0000000  0  1G03                                 
  24667665.7224   -1369435.22747  -1063300.16646  24667664.1944   24667669.2804 
 08 12 16 09 47 20.0000000  0  1G03                                 
  24667061.7384   -1372610.54347  -1065774.44046  24667060.3214   24667065.1974 
 08 12 16 09 47 21.0000000  0  1G03                                 
  24666457.8804   -1375785.77147  -1068248.64446  24666456.5754   24666461.4654 
 08 12 16 09 47 22.0000000  0  1G03                                 
  24665853.9134   -1378960.87847  -1070722.75246  24665851.9534   24665856.7794 
 08 12 16 09 47 23.0000000  0  1G03                                 
  24665250.0194   -1382135.68147  -1073196.62446  24665247.7294   24665252.7984 
 08 12 16 09 47 24.0000000  0  1G03                                 
  24664646.1424   -1385310.82247  -1075670.75846  24664643.8934   24664648.2344 
 08 12 16 09 47 25.0000000  0  1G03                                 
  24664042.2674   -1388485.84147  -1078144.79846  24664039.4204   24664044.3784 
 08 12 16 09 47 26.0000000  0  1G03                                 
  24663438.0034   -1391660.92147  -1080618.88746  24663435.6834   24663439.4504 
 08 12 16 09 47 27.0000000  0  1G03                                 
  24662833.2484   -1394836.05847  -1083093.02046  24662830.9514   24662834.8344 
 08 12 16 09 47 28.0000000  0  1G03                                 
  24662228.7734   -1398011.04147  -1085567.03246  24662226.7944   24662229.6584 
 08 12 16 09 47 29.0000000  0  1G03                                 
  24661624.3034   -1401185.78447  -1088040.85746  24661622.0414   24661625.1134 
 08 12 16 09 47 30.0000000  0  1G03                                 
  24661019.6794   -1404360.48947  -1090514.65346  24661017.9744   24661021.1484 
 08 12 16 09 47 31.0000000  0  1G03                                 
  24660415.5454   -1407535.18847  -1092988.44646  24660413.9844   24660417.9974 
 08 12 16 09 47 32.0000000  0  1G03                                 
  24659811.3404   -1410709.84247  -1095462.20146  24659809.4734   24659814.0904 
 08 12 16 09 47 33.0000000  0  1G03                                 
  24659207.4264   -1413884.48947  -1097935.95146  24659205.8504   24659210.6074 
 08 12 16 09 47 34.0000000  0  1G03                                 
  24658603.5614   -1417058.72047  -1100409.37646  24658601.9544   24658606.3024 
 08 12 16 09 47 35.0000000  0  1G03                                 
  24657999.5594   -1420232.83547  -1102882.71146  24657998.8944   24658002.4194 
 08 12 16 09 47 36.0000000  0  1G03                                 
  24657395.2774   -1423406.71047  -1105355.85846  24657394.1084   24657397.5274 
 08 12 16 09 47 37.0000000  0  1G03                                 
  24656791.4464   -1426580.42147  -1107828.87946  24656790.2604   24656793.7224 
 08 12 16 09 47 38.0000000  0  1G03                                 
  24656187.4544   -1429753.71947  -1110301.57646  24656186.0004   24656190.0914 
 08 12 16 09 47 39.0000000  0  1G03                                 
  24655583.3534   -1432927.14947  -1112774.37646  24655582.0344   24655585.6564 
 08 12 16 09 47 40.0000000  0  1G03                                 
  24654979.1614   -1436100.69547  -1115247.26946  24654978.2484   24654982.2844 
 08 12 16 09 47 41.0000000  0  1G03                                 
  24654375.3794   -1439274.47047  -1117720.33646  24654374.5524   24654378.8464 
 08 12 16 09 47 42.0000000  0  1G03                                 
  24653771.5814   -1442448.27447  -1120193.43146  24653770.6454   24653775.4204 
 08 12 16 09 47 43.0000000  0  1G03                                 
  24653168.0124   -1445622.06147  -1122666.51146  24653167.0574   24653171.9514 
 08 12 16 09 47 44.0000000  0  1G03                                 
  24652564.7744   -1448795.56147  -1125139.36646  24652562.5254   24652568.8604 
 08 12 16 09 47 45.0000000  0  1G03                                 
  24651961.4354   -1451968.90047  -1127612.09546  24651958.9964   24651965.3684 
 08 12 16 09 47 46.0000000  0  1G03                                 
  24651357.7074   -1455142.26247  -1130084.84446  24651354.5034   24651360.8954 
 08 12 16 09 47 47.0000000  0  1G03                                 
  24650753.9114   -1458315.47047  -1132557.47346  24650750.7784   24650756.1004 
 08 12 16 09 47 48.0000000  0  1G03                                 
  24650150.2094   -1461488.38247  -1135029.86746  24650146.4224   24650152.0574 
 08 12 16 09 47 49.0000000  0  1G03                                 
  24649546.3904   -1464661.26547  -1137502.23946  24649543.3734   24649547.7204 
 08 12 16 09 47 50.0000000  0  1G03                                 
  24648942.5454   -1467834.22047  -1139974.67146  24648939.1544   24648944.0134 
 08 12 16 09 47 51.0000000  0  1G03                                 
  24648338.5914   -1471007.24747  -1142447.15746  24648335.4424   24648340.0634 
 08 12 16 09 47 52.0000000  0  1G03                                 
  24647734.5174   -1474180.39247  -1144919.73446  24647731.6204   24647735.4774 
 08 12 16 09 47 53.0000000  0  1G03                                 
  24647130.7254   -1477353.34347  -1147392.16246  24647127.8904   24647132.6554 
 08 12 16 09 47 54.0000000  0  1G03                                 
  24646526.8684   -1480525.83947  -1149864.23246  24646524.7734   24646528.7304 
 08 12 16 09 47 55.0000000  0  1G03                                 
  24645923.0834   -1483698.18847  -1152336.19046  24645920.9684   24645925.2954 
 08 12 16 09 47 56.0000000  0  1G03                                 
  24645319.1414   -1486870.50147  -1154808.12046  24645317.4934   24645322.4094 
 08 12 16 09 47 57.0000000  0  1G03                                 
  24644715.2654   -1490042.81947  -1157280.05346  24644713.9484   24644718.4034 
 08 12 16 09 47 58.0000000  0  1G03                                 
  24644111.3944   -1493215.10047  -1159751.95846  24644110.3714   24644114.3784 
 08 12 16 09 47 59.0000000  0  1G03                                 
  24643507.6714   -1496387.29347  -1162223.79446  24643506.5124   24643510.2044 
 08 12 16 09 48 00.0000000  0  1G03                                 
  24642904.1704   -1499559.35347  -1164695.52546  24642903.3254   24642907.4504 
 08 12 16 09 48 01.0000000  0  1G03                                 
  24642300.6424   -1502731.24047  -1167167.12146  24642300.0034   24642303.7014 
 08 12 16 09 48 02.0000000  0  1G03                                 
  24641697.0374   -1505903.08647  -1169638.68946  24641695.9354   24641699.5614 
 08 12 16 09 48 03.0000000  0  1G03                                 
  24641093.2604   -1509075.00747  -1172110.31446  24641092.4494   24641095.9684 
 08 12 16 09 48 04.0000000  0  1G03                                 
  24640489.9254   -1512247.11447  -1174582.08346  24640488.9854   24640492.2034 
 08 12 16 09 48 05.0000000  0  1G03                                 
  24639886.5574   -1515418.97647  -1177053.66346  24639885.0104   24639889.2694 
 08 12 16 09 48 06.0000000  0  1G03                                 
  24639283.4644   -1518590.49347  -1179524.97346  24639281.4724   24639286.4494 
 08 12 16 09 48 07.0000000  0  1G03                                 
  24638680.1184   -1521762.05747  -1181996.32246  24638677.6404   24638683.4314 
 08 12 16 09 48 08.0000000  0  1G03                                 
  24638076.6694   -1524933.38447  -1184467.48146  24638073.8234   24638079.3974 
 08 12 16 09 48 09.0000000  0  1G03                                 
  24637473.2614   -1528104.94247  -1186938.82346  24637470.1714   24637475.3984 
 08 12 16 09 48 10.0000000  0  1G03                                 
  24636870.0574   -1531276.29647  -1189410.00846  24636866.7754   24636871.1434 
 08 12 16 09 48 11.0000000  0  1G03                                 
  24636267.0184   -1534447.16747  -1191880.81346  24636263.5984   24636267.6554 
 08 12 16 09 48 12.0000000  0  1G03                                 
  24635663.5884   -1537618.00047  -1194351.59146  24635660.1464   24635663.9484 
 08 12 16 09 48 13.0000000  0  1G03                                 
  24635059.8734   -1540788.62947  -1196822.20946  24635056.2844   24635060.5314 
 08 12 16 09 48 14.0000000  0  1G03                                 
  24634456.2404   -1543959.20347  -1199292.78446  24634453.0934   24634457.1714 
 08 12 16 09 48 15.0000000  0  1G03                                 
  24633852.6044   -1547129.70747  -1201763.30846  24633849.6404   24633853.9674 
 08 12 16 09 48 16.0000000  0  1G03                                 
  24633248.8744   -1550300.57347  -1204234.11246  24633246.1504   24633250.4724 
 08 12 16 09 48 17.0000000  0  1G03                                 
  24632645.0314   -1553471.22547  -1206704.75046  24632642.6674   24632646.4304 
 08 12 16 09 48 18.0000000  0  1G03                                 
  24632041.2334   -1556641.84947  -1209175.36546  24632039.4664   24632043.9014 
 08 12 16 09 48 19.0000000  0  1G03                                 
  24631437.7014   -1559812.24447  -1211645.80246  24631436.9464   24631440.9544 
 08 12 16 09 48 20.0000000  0  1G03                                 
  24630834.4044   -1562982.71147  -1214116.29746  24630834.5554   24630838.6104 
 08 12 16 09 48 21.0000000  0  1G03                                 
  24630231.0454   -1566153.00347  -1216586.65546  24630231.1654   24630235.3684 
 08 12 16 09 48 22.0000000  0  1G03                                 
  24629627.7644   -1569323.26647  -1219056.99046  24629627.3974   24629631.8604 
 08 12 16 09 48 23.0000000  0  1G03                                 
  24629024.6374   -1572493.15747  -1221527.03346  24629024.3274   24629028.6874 
 08 12 16 09 48 24.0000000  0  1G03                                 
  24628421.3024   -1575663.07347  -1223997.09546  24628420.7664   24628425.0824 
 08 12 16 09 48 25.0000000  0  1G03                                 
  24627818.1634   -1578832.79547  -1226467.00646  24627817.1944   24627821.7604 
 08 12 16 09 48 26.0000000  0  1G03                                 
  24627215.2344   -1582002.70347  -1228937.06446  24627214.3564   24627218.7274 
 08 12 16 09 48 27.0000000  0  1G03                                 
  24626612.0034   -1585172.37547  -1231406.93546  24626611.2484   24626615.1484 
 08 12 16 09 48 28.0000000  0  1G03                                 
  24626009.0894   -1588341.89147  -1233876.68746  24626008.1844   24626011.9494 
 08 12 16 09 48 29.0000000  0  1G03                                 
  24625406.2494   -1591511.07647  -1236346.17946  24625405.1854   24625408.6564 
 08 12 16 09 48 30.0000000  0  1G03                                 
  24624803.2204   -1594680.13947  -1238815.57546  24624801.6754   24624805.5194 
 08 12 16 09 48 31.0000000  0  1G03                                 
  24624200.3994   -1597849.03247  -1241284.83946  24624198.7234   24624202.8284 
 08 12 16 09 48 32.0000000  0  1G03                                 
  24623597.3314   -1601018.00147  -1243754.16246  24623595.4044   24623599.5044 
 08 12 16 09 48 33.0000000  0  1G03                                 
  24622994.4234   -1604186.87047  -1246223.40946  24622992.5984   24622996.2584 
 08 12 16 09 48 34.0000000  0  1G03                                 
  24622391.3934   -1607355.91947  -1248692.79646  24622389.3494   24622392.7584 
 08 12 16 09 48 35.0000000  0  1G03                                 
  24621788.5034   -1610524.70747  -1251161.97946  24621787.0734   24621789.8804 
 08 12 16 09 48 36.0000000  0  1G03                                 
  24621185.5714   -1613693.42947  -1253631.11146  24621184.6294   24621186.9824 
 08 12 16 09 48 37.0000000  0  1G03                                 
  24620582.5054   -1616861.84047  -1256100.00346  24620581.3094   24620584.4364 
 08 12 16 09 48 38.0000000  0  1G03                                 
  24619979.4094   -1620029.88847  -1258568.60846  24619978.4344   24619981.2354 
 08 12 16 09 48 39.0000000  0  1G03                                 
  24619376.4614   -1623197.86547  -1261037.16146  24619375.4094   24619378.4094 
 08 12 16 09 48 40.0000000  0  1G03                                 
  24618773.4904   -1626365.59047  -1263505.51746  24618772.2404   24618776.1764 
 08 12 16 09 48 41.0000000  0  1G03                                 
  24618170.6294   -1629533.31147  -1265973.87046  24618169.6464   24618173.3544 
 08 12 16 09 48 42.0000000  0  1G03                                 
  24617567.8434   -1632701.31447  -1268442.44446  24617566.9944   24617570.6594 
 08 12 16 09 48 43.0000000  0  1G03                                 
  24616964.8774   -1635869.45347  -1270911.12446  24616963.8334   24616967.5504 
 08 12 16 09 48 44.0000000  0  1G03                                 
  24616362.0384   -1639037.54547  -1273379.76646  24616360.8014   24616364.3884 
 08 12 16 09 48 45.0000000  0  1G03                                 
  24615759.1504   -1642205.21647  -1275848.08046  24615757.6924   24615761.0434 
 08 12 16 09 48 46.0000000  0  1G03                                 
  24615156.3424   -1645373.19547  -1278316.63446  24615155.0664   24615158.4904 
 08 12 16 09 48 47.0000000  0  1G03                                 
  24614553.4684   -1648540.98347  -1280785.04046  24614552.3164   24614556.4414 
 08 12 16 09 48 48.0000000  0  1G03                                 
  24613950.6674   -1651708.50047  -1283253.23346  24613950.0074   24613952.9284 
 08 12 16 09 48 49.0000000  0  1G03                                 
  24613347.8334   -1654875.80647  -1285721.26646  24613347.3524   24613350.9914 
 08 12 16 09 48 50.0000000  0  1G03                                 
  24612744.9884   -1658043.06047  -1288189.25546  24612744.9684   24612747.4964 
 08 12 16 09 48 51.0000000  0  1G03                                 
  24612142.0244   -1661210.25647  -1290657.20246  24612141.5854   24612144.9884 
 08 12 16 09 48 52.0000000  0  1G03                                 
  24611539.1284   -1664377.39847  -1293125.10546  24611538.6524   24611542.2604 
 08 12 16 09 48 53.0000000  0  1G03                                 
  24610936.3894   -1667544.58347  -1295593.04246  24610936.3014   24610939.3254 
 08 12 16 09 48 54.0000000  0  1G03                                 
  24610333.7874   -1670711.41247  -1298060.70046  24610333.9814   24610336.1274 
 08 12 16 09 48 55.0000000  0  1G03                                 
  24609731.4744   -1673878.20147  -1300528.32846  24609731.8464   24609733.6684 
 08 12 16 09 48 56.0000000  0  1G03                                 
  24609129.0014   -1677045.10047  -1302996.04246  24609128.8704   24609131.0244 
 08 12 16 09 48 57.0000000  0  1G03                                 
  24608526.3404   -1680211.84447  -1305463.63346  24608525.7134   24608528.0564 
 08 12 16 09 48 58.0000000  0  1G03                                 
  24607923.9394   -1683378.60247  -1307931.23846  24607923.4904   24607925.2164 
 08 12 16 09 48 59.0000000  0  1G03                                 
  24607321.3994   -1686545.38747  -1310398.86446  24607321.0144   24607323.0044 
 08 12 16 09 49 00.0000000  0  1G03                                 
  24606718.9484   -1689711.78947  -1312866.19146  24606718.3644   24606721.0474 
 08 12 16 09 49 01.0000000  0  1G03                                 
  24606116.4454   -1692877.87647  -1315333.27246  24606116.1444   24606118.6964 
 08 12 16 09 49 02.0000000  0  1G03                                 
  24605513.9354   -1696043.92947  -1317800.32646  24605513.4834   24605516.8724 
 08 12 16 09 49 03.0000000  0  1G03                                 
  24604911.3914   -1699209.98247  -1320267.38046  24604910.6604   24604913.7094 
 08 12 16 09 49 04.0000000  0  1G03                                 
  24604308.6534   -1702376.17147  -1322734.54046  24604308.1204   24604310.9904 
 08 12 16 09 49 05.0000000  0  1G03                                 
  24603706.0544   -1705542.46147  -1325201.77946  24603705.7844   24603708.3794 
 08 12 16 09 49 06.0000000  0  1G03                                 
  24603103.4064   -1708708.68447  -1327668.96446  24603102.5704   24603105.4054 
 08 12 16 09 49 07.0000000  0  1G03                                 
  24602501.0264   -1711874.70447  -1330135.99346  24602499.6894   24602503.3444 
 08 12 16 09 49 08.0000000  0  1G03                                 
  24601898.7594   -1715040.82747  -1332603.10046  24601897.7314   24601900.9934 
 08 12 16 09 49 09.0000000  0  1G03                                 
  24601296.3204   -1718206.41047  -1335069.78746  24601295.7374   24601298.6004 
 08 12 16 09 49 10.0000000  0  1G03                                 
  24600694.2194   -1721371.92547  -1337536.42046  24600693.4444   24600696.5474 
 08 12 16 09 49 11.0000000  0  1G03                                 
  24600092.0454   -1724537.38447  -1340003.01146  24600091.3644   24600094.2664 
 08 12 16 09 49 12.0000000  0  1G03                                 
  24599489.7384   -1727702.88447  -1342469.63346  24599488.6484   24599491.7344 
 08 12 16 09 49 13.0000000  0  1G03                                 
  24598887.2914   -1730868.47847  -1344936.33046  24598886.0244   24598889.2814 
 08 12 16 09 49 14.0000000  0  1G03                                 
  24598285.1754   -1734033.91047  -1347402.90046  24598284.4404   24598287.1264 
 08 12 16 09 49 15.0000000  0  1G03                                 
  24597682.9114   -1737199.09147  -1349869.27446  24597681.2504   24597684.7464 
 08 12 16 09 49 16.0000000  0  1G03                                 
  24597080.6694   -1740364.44747  -1352335.78546  24597078.4954   24597082.4364 
 08 12 16 09 49 17.0000000  0  1G03                                 
  24596478.5604   -1743529.56547  -1354802.11146  24596476.0994   24596479.8634 
 08 12 16 09 49 18.0000000  0  1G03                                 
  24595876.2254   -1746694.82747  -1357268.54946  24595874.2654   24595877.2354 
 08 12 16 09 49 19.0000000  0  1G03                                 
  24595273.9264   -1749859.83747  -1359734.78946  24595272.1304   24595274.3714 
 08 12 16 09 49 20.0000000  0  1G03                                 
  24594671.8434   -1753024.42247  -1362200.70046  24594669.4654   24594672.1534 
 08 12 16 09 49 21.0000000  0  1G03                                 
  24594069.5794   -1756188.90747  -1364666.53046  24594066.6034   24594069.9494 
 08 12 16 09 49 22.0000000  0  1G03                                 
  24593467.4834   -1759353.28947  -1367132.28146  24593464.5154   24593468.3154 
 08 12 16 09 49 23.0000000  0  1G03                                 
  24592865.3454   -1762517.95647  -1369598.25446  24592862.5414   24592866.0754 
 08 12 16 09 49 24.0000000  0  1G03                                 
  24592262.6234   -1765682.36447  -1372064.02446  24592260.3414   24592263.1124 
 08 12 16 09 49 25.0000000  0  1G03                                 
  24591660.4594   -1768846.28047  -1374529.41146  24591657.8814   24591661.6184 
 08 12 16 09 49 26.0000000  0  1G03                                 
  24591058.1954   -1772010.03147  -1376994.66946  24591056.0224   24591060.0984 
 08 12 16 09 49 27.0000000  0  1G03                                 
